,City,Country,Date,Latitude,Longitude,Max Temperature,Humidity,Cloudiness,Wind Speed
0,Aksu,CN,1612753668,41.1231,80.2644,33.04,75,11,1.99
1,Bluff,NZ,1612753668,-46.6,168.3333,59.11,83,100,10.36
2,Guder,ET,1612753668,8.9667,37.7667,53.74,78,70,3.83
3,Qaanaaq,GL,1612753668,77.484,-69.3632,17.78,85,100,6.98
4,Piaçabuçu,BR,1612753668,-10.4056,-36.4344,78.1,81,99,12.26
5,Ushuaia,AR,1612753448,-54.8,-68.3,51.8,87,75,5.75
6,Cidreira,BR,1612753432,-30.1811,-50.2056,69.96,73,0,7.85
7,George Town,MY,1612753669,5.4112,100.3354,86.0,65,20,3.44
8,Longyearbyen,SJ,1612753669,78.2186,15.6401,15.8,41,0,16.11
9,New Norfolk,AU,1612753669,-42.7826,147.0587,64.0,50,88,5.99
10,Avera,US,1612753669,33.194,-82.5271,37.99,80,1,5.37
11,Hillsborough,US,1612753539,37.5741,-122.3794,55.99,67,20,14.97
12,Lorengau,PG,1612753669,-2.0226,147.2712,86.04,67,100,6.31
13,Haines Junction,CA,1612753670,60.7522,-137.5108,-20.2,76,13,1.48
14,Lüderitz,NA,1612753670,-26.6481,15.1594,67.23,50,0,24.87
15,Leningradskiy,RU,1612753670,69.3833,178.4167,-16.69,86,5,8.95
16,Yulara,AU,1612753670,-25.2406,130.9889,91.4,18,0,13.8
17,Kingaroy,AU,1612753670,-26.5333,151.8333,80.6,57,90,9.22
18,Atuona,PF,1612753670,-9.8,-139.0333,79.56,76,10,19.8
19,Pilar,BR,1612753670,-9.5972,-35.9567,73.4,94,40,4.61
20,Castro,BR,1612753670,-24.7911,-50.0119,54.75,74,0,6.64
21,Albany,US,1612753573,42.6001,-73.9662,23.0,70,36,3.0
22,Esperance,AU,1612753671,-33.8667,121.9,82.4,51,15,24.16
23,Pangnirtung,CA,1612753671,66.1451,-65.7125,20.91,77,0,5.82
24,Hambantota,LK,1612753671,6.1241,81.1185,78.8,89,20,6.91
25,Rikitea,PF,1612753672,-23.1203,-134.9692,77.56,70,69,12.75
26,Togur,RU,1612753672,58.3631,82.8265,9.28,94,100,11.72
27,Busselton,AU,1612753672,-33.65,115.3333,66.99,97,98,5.01
28,Kapaa,US,1612753672,22.0752,-159.319,72.0,56,75,5.75
29,Moa,CU,1612753672,20.6569,-74.9403,75.15,76,2,4.32
30,Hilo,US,1612753206,19.7297,-155.09,77.0,61,75,8.05
31,Hobart,AU,1612753499,-42.8794,147.3294,66.99,42,75,17.27
32,Jalu,LY,1612753673,29.0331,21.5482,66.13,26,100,15.46
33,Acapulco de Juárez,MX,1612753435,16.8634,-99.8901,80.6,74,20,9.22
34,Wagar,SD,1612753673,16.1525,36.2032,58.37,79,0,10.27
35,Belaya Gora,RU,1612753673,68.5333,146.4167,-20.88,86,94,3.33
36,Kholodnyy,RU,1612753673,62.7167,147.95,-1.14,84,100,9.46
37,Nānākuli,US,1612753673,21.3906,-158.1547,77.0,47,1,6.91
38,Mataura,NZ,1612753673,-46.1927,168.8643,73.26,47,100,2.64
39,Tual,ID,1612753673,-5.6667,132.75,83.97,78,76,17.16
40,Amga,RU,1612753674,60.8953,131.9608,-19.95,84,100,2.04
41,Sola,VU,1612753674,-13.8833,167.55,82.58,61,47,5.3
42,Hīt,IQ,1612753674,33.6416,42.8251,55.22,71,0,7.4
43,Sitka,US,1612753675,57.0531,-135.33,33.8,37,90,8.05
44,Kavieng,PG,1612753675,-2.5744,150.7967,85.37,70,9,6.96
45,Yar-Sale,RU,1612753675,66.8333,70.8333,-10.3,90,100,19.91
46,Port Hardy,CA,1612753456,50.6996,-127.4199,39.2,75,75,6.91
47,Karratha,AU,1612753456,-20.7377,116.8463,84.27,54,0,7.07
48,Puerto Ayora,EC,1612753482,-0.7393,-90.3518,75.99,95,99,5.77
49,Najrān,SA,1612753675,17.4924,44.1277,57.2,54,0,4.38
50,Arvika,SE,1612753675,59.6553,12.5852,15.8,92,40,5.75
51,Constitución,CL,1612753556,-35.3333,-72.4167,57.15,91,3,6.58
52,Preston,GB,1612753675,53.7667,-2.7167,34.0,78,78,7.0
53,Khovd,MN,1612753676,48.0056,91.6419,16.72,82,100,0.89
54,Antigonish,CA,1612753676,45.6169,-61.9986,26.01,94,100,7.0
55,Xunchang,CN,1612753676,28.4543,104.715,60.62,50,100,1.52
56,Banikoara,BJ,1612753676,11.2985,2.4386,72.52,26,0,5.1
57,Bathsheba,BB,1612753676,13.2167,-59.5167,77.0,65,40,17.27
58,Presidencia Roque Sáenz Peña,AR,1612753676,-26.7852,-60.4388,69.78,47,0,4.83
59,Barrow,US,1612753648,71.2906,-156.7887,-27.4,68,1,6.91
60,Opotiki,NZ,1612753676,-38.0833,177.2833,75.99,51,65,3.0
61,Katherine,AU,1612753677,-14.4667,132.2667,86.0,70,40,11.5
62,Kungurtug,RU,1612753677,50.5994,97.5228,13.23,87,100,0.69
63,Lufilufi,WS,1612753677,-13.8745,-171.5986,84.0,94,90,10.36
64,Punta Arenas,CL,1612753677,-53.15,-70.9167,60.8,44,75,12.66
65,Torbay,CA,1612753399,47.6666,-52.7314,30.0,74,75,21.85
66,Ribeira Grande,PT,1612753452,38.5167,-28.7,58.62,80,3,18.57
67,Port Alfred,ZA,1612753677,-33.5906,26.891,63.0,91,95,3.0
68,Prince Rupert,CA,1612753636,54.3161,-130.3201,33.8,54,1,11.5
69,Nikolskoye,RU,1612753678,59.7035,30.7861,12.0,85,0,4.47
70,Chengde,CN,1612753507,40.9725,117.9361,27.75,70,0,6.42
71,Hasaki,JP,1612753678,35.7333,140.8333,48.0,39,75,9.22
72,Tabasco,MX,1612753678,18.0,-92.6667,73.4,88,1,3.27
73,Hofn,IS,1612753448,64.2539,-15.2082,37.49,82,100,15.26
74,Burns Lake,CA,1612753678,54.2331,-125.7533,6.8,85,74,2.35
75,Yermakovskoye,RU,1612753678,53.2831,92.4003,21.09,94,72,5.19
76,Port Blair,IN,1612753678,11.6667,92.75,73.4,88,90,5.75
77,Codrington,AU,1612753459,-38.2667,141.9667,61.83,64,100,15.08
78,Cape Town,ZA,1612753521,-33.9258,18.4232,66.0,72,0,12.66
79,Sur,OM,1612753679,22.5667,59.5289,63.55,71,0,0.72
80,Qasigiannguit,GL,1612753442,68.8193,-51.1922,21.2,38,0,25.32
81,Batagay-Alyta,RU,1612753679,67.8006,130.4114,-24.86,76,0,2.3
82,Hermanus,ZA,1612753679,-34.4187,19.2345,63.0,80,0,1.99
83,Saint George,US,1612753569,37.1041,-113.5841,55.0,25,1,3.44
84,Cherskiy,RU,1612753679,68.75,161.3,6.24,74,0,2.68
85,Vaini,TO,1612753638,-21.2,-175.2,77.0,94,90,12.66
86,Mar del Plata,AR,1612753679,-38.0023,-57.5575,62.01,72,90,12.66
87,Airai,TL,1612753679,-8.9266,125.4092,71.24,89,100,4.23
88,Provideniya,RU,1612753447,64.3833,-173.3,-0.53,85,100,20.47
89,Klaksvík,FO,1612753672,62.2266,-6.589,35.6,64,75,17.27
90,Hithadhoo,MV,1612753649,-0.6,73.0833,81.95,72,15,11.39
91,Ahipara,NZ,1612753463,-35.1667,173.1667,72.3,60,52,9.35
92,Saýat,TM,1612753680,38.7839,63.8803,42.8,93,100,2.3
93,Paita,PE,1612753680,-5.0892,-81.1144,75.87,75,82,12.57
94,Lebu,CL,1612753680,-37.6167,-73.65,57.69,95,80,0.4
95,Hirado,JP,1612753680,33.3597,129.5531,51.8,40,75,17.27
96,Faanui,PF,1612753434,-16.4833,-151.75,81.73,76,1,12.33
97,Seoul,KR,1612753558,37.5683,126.9778,30.2,27,0,16.11
98,Hong Kong,HK,1612753680,22.2855,114.1577,73.0,80,22,1.99
99,Novobiryusinskiy,RU,1612753681,56.9578,97.7076,25.66,97,65,3.71
100,Port Hueneme,US,1612753681,34.1478,-119.1951,55.4,87,20,1.57
101,Kuala Selangor,MY,1612753682,3.35,101.25,88.0,74,20,2.3
102,Avarua,CK,1612753682,-21.2078,-159.775,84.2,74,20,10.36
103,Dikson,RU,1612753448,73.5069,80.5464,-31.05,85,90,19.33
104,Half Moon Bay,US,1612753540,37.4636,-122.4286,55.99,87,20,8.05
105,Iqaluit,CA,1612753682,63.7506,-68.5145,32.0,69,90,16.11
106,Pasni,PK,1612753682,25.2631,63.471,64.74,44,0,8.32
107,Biltine,TD,1612753682,14.5333,20.9167,65.17,25,80,14.61
108,Southbridge,US,1612753683,42.0751,-72.0334,28.0,80,95,13.89
109,Xai-Xai,MZ,1612753683,-25.0519,33.6442,75.38,92,100,2.77
110,Butaritari,KI,1612753440,3.0707,172.7902,81.14,80,24,16.64
111,Bengkulu,ID,1612753438,-3.8004,102.2655,84.54,60,53,6.33
112,Hong Gai,VN,1612753683,20.956,107.0946,71.6,78,0,6.91
113,Atar,MR,1612753683,20.5169,-13.0499,56.3,41,0,8.43
114,Hājan,IN,1612753683,34.3,74.6167,31.46,87,85,1.07
115,Eskilstuna,SE,1612753683,59.3666,16.5077,15.8,86,75,9.22
116,Thompson,CA,1612753684,55.7435,-97.8558,-27.4,68,75,20.71
117,Verkhnyaya Inta,RU,1612753684,65.9811,60.3094,-13.94,89,100,8.14
118,Stornoway,GB,1612753684,58.2093,-6.3865,33.8,75,40,11.5
119,Arraial do Cabo,BR,1612753684,-22.9661,-42.0278,74.61,81,100,2.19
120,Tuktoyaktuk,CA,1612753641,69.4541,-133.0374,-29.2,75,40,9.22
121,Lucea,JM,1612753684,18.451,-78.1736,78.8,73,20,10.36
122,Samarai,PG,1612753684,-10.6167,150.6667,85.53,70,84,5.17
123,Tura,IN,1612753684,25.5198,90.2201,70.75,32,0,3.42
124,Bredasdorp,ZA,1612753532,-34.5322,20.0403,57.2,82,18,4.61
125,The Pas,CA,1612753685,53.8251,-101.2541,-27.4,62,1,12.66
126,Chui,UY,1612753439,-33.6971,-53.4616,64.45,84,11,6.58
127,Eastlake,US,1612753685,41.6539,-81.4504,15.01,67,90,10.36
128,Olafsvik,IS,1612753685,64.8945,-23.7142,35.01,81,59,16.08
129,Zemio,CF,1612753685,5.0314,25.1361,59.79,32,67,4.72
130,San Patricio,US,1612753685,28.017,-97.5169,62.6,82,20,8.05
131,Bilma,NE,1612753685,18.6853,12.9164,61.0,27,100,4.88
132,Maniitsoq,GL,1612753444,65.4167,-52.9,24.73,79,0,18.03
133,Murindó,CO,1612753686,6.9848,-76.7544,74.68,94,100,2.3
134,Isangel,VU,1612753686,-19.55,169.2667,86.0,74,40,6.91
135,Port Lincoln,AU,1612753431,-34.7333,135.8667,66.9,67,39,15.88
136,Passau,DE,1612753687,48.5712,13.449,33.01,95,100,1.01
137,Ibadan,NG,1612753687,7.3878,3.8964,75.04,91,95,3.06
138,Churapcha,RU,1612753687,62.0025,132.4325,-23.96,82,96,4.16
139,Tasiilaq,GL,1612753687,65.6145,-37.6368,28.4,46,20,20.71
140,La Ronge,CA,1612753687,55.1001,-105.2842,-31.0,61,1,4.61
141,Evensk,RU,1612753688,61.95,159.2333,13.06,92,100,45.05
142,Bambous Virieux,MU,1612753688,-20.3428,57.7575,82.0,78,40,8.05
143,Røros,NO,1612753688,62.5747,11.3842,3.2,78,90,3.44
144,Chifeng,CN,1612753433,42.2683,118.9636,15.31,87,0,7.96
145,Mahébourg,MU,1612753679,-20.4081,57.7,78.8,78,40,8.05
146,Santa Maria,BR,1612753448,-29.6842,-53.8069,71.6,88,0,9.22
147,‘Āhuimanu,US,1612753689,21.4447,-157.8378,77.0,50,75,4.61
148,Cabo San Lucas,MX,1612753433,22.8909,-109.9124,66.2,63,40,8.05
149,Hobyo,SO,1612753689,5.3505,48.5268,76.5,82,11,16.15
150,Broome,US,1612753689,42.2506,-75.833,12.99,67,20,12.66
151,Narsaq,GL,1612753689,60.9167,-46.05,39.2,28,20,39.12
152,Saint-Philippe,RE,1612753689,-21.3585,55.7679,80.6,61,90,10.36
153,Waren,DE,1612753690,53.5167,12.6833,21.0,47,100,5.01
154,Clyde River,CA,1612753437,70.4692,-68.5914,-7.6,84,75,19.57
155,Ostrovnoy,RU,1612753690,68.0531,39.5131,2.53,92,77,11.25
156,Mudgee,AU,1612753690,-32.5943,149.5871,75.2,50,40,5.75
157,Lyuban',BY,1612753690,52.7985,28.0048,3.78,92,66,9.98
158,Port Augusta,AU,1612753690,-32.5,137.7667,84.0,46,0,10.36
159,Upernavik,GL,1612753433,72.7868,-56.1549,17.74,79,35,4.92
160,Burnie,AU,1612753450,-41.0667,145.9167,70.0,85,15,5.01
161,Dutlwe,BW,1612753691,-23.9833,23.9,63.48,94,95,5.75
162,Matagami,CA,1612753691,49.7502,-77.6328,-4.0,77,1,3.44
163,Lárdos,GR,1612753691,36.0942,28.0157,61.0,82,40,13.8
164,Luancheng,CN,1612753691,37.8792,114.6517,37.4,52,62,2.24
165,Concepción del Uruguay,AR,1612753691,-32.4825,-58.2372,75.0,66,0,6.78
166,Sambava,MG,1612753691,-14.2667,50.1667,75.22,89,35,4.45
167,Ambilobe,MG,1612753692,-13.2,49.05,73.11,91,97,2.17
168,Aklavik,CA,1612753681,68.2191,-135.0107,-23.8,75,100,10.36
169,Vao,NC,1612753692,-22.6667,167.4833,78.37,75,31,3.2
170,Richards Bay,ZA,1612753446,-28.783,32.0377,74.19,92,100,5.91
171,Tiksi,RU,1612753692,71.6872,128.8694,-28.32,86,70,6.4
172,Luanda,AO,1612753513,-8.8368,13.2343,78.12,79,100,7.47
173,Birūr,IN,1612753692,13.6167,75.9667,66.49,49,95,7.94
174,Mahon,ES,1612753693,39.8885,4.2658,51.8,82,0,6.91
175,Mandalgovi,MN,1612753693,45.7625,106.2708,19.89,80,0,10.02
176,Yumen,CN,1612753455,40.2833,97.2,30.99,74,100,10.87
177,Olavarría,AR,1612753693,-36.8927,-60.3225,55.99,93,100,4.0
178,Jinchang,CN,1612753693,38.4953,102.1739,36.75,53,0,2.37
179,Kaitangata,NZ,1612753693,-46.2817,169.8464,66.99,75,100,4.0
180,Padang,ID,1612753403,-0.9492,100.3543,86.0,62,20,2.3
181,Whitehorse,CA,1612753693,60.7161,-135.0538,-4.0,84,40,3.44
182,Tromsø,NO,1612753693,69.6496,18.957,26.6,74,75,3.44
183,Saint-Augustin,CA,1612753693,51.226,-58.6502,15.33,92,5,10.0
184,Savinskiy,RU,1612753694,62.9342,40.1361,-11.67,90,100,5.82
185,Atlantis,ZA,1612753694,-33.5667,18.4834,64.0,80,0,10.63
186,Grindavik,IS,1612753694,63.8424,-22.4338,33.8,69,0,14.97
187,Kosonsoy,UZ,1612753694,41.2561,71.5508,39.2,87,66,2.3
188,Winona,US,1612753695,43.9666,-91.7668,-2.2,60,90,4.61
189,Saskylakh,RU,1612753695,71.9167,114.0833,-36.35,80,42,10.54
190,Mitú,CO,1612753400,1.1983,-70.1733,73.33,97,100,0.87
191,Fairview,US,1612753608,40.8126,-73.999,30.2,69,1,8.05
192,Sarakhs,IR,1612753695,36.5449,61.1577,46.4,76,40,7.47
193,Jamestown,US,1612753431,42.097,-79.2353,12.0,79,90,8.05
194,Saldanha,ZA,1612753647,-33.0117,17.9442,60.8,77,0,5.75
195,San Ignacio,BZ,1612753696,17.1561,-89.0714,77.0,88,20,4.61
196,East London,ZA,1612753696,-33.0153,27.9116,70.05,83,93,12.21
197,Beloha,MG,1612753696,-25.1667,45.05,74.57,95,13,3.31
198,Lázaro Cárdenas,MX,1612753696,17.9583,-102.2,73.31,77,0,2.53
199,Zonguldak,TR,1612753696,41.25,31.8333,49.15,51,100,5.99
200,Boddam,GB,1612753696,57.4667,-1.7833,30.2,93,75,9.22
201,Camacha,PT,1612753696,33.0833,-16.3333,60.8,88,75,14.97
202,Bayan,CN,1612753511,46.0833,127.4,-5.73,89,52,7.76
203,Stephenville,US,1612753697,32.2207,-98.2023,52.0,50,1,5.75
204,Raudeberg,NO,1612753697,61.9875,5.1352,23.0,58,0,7.25
205,Vostok,RU,1612753697,46.4856,135.8833,-3.91,89,100,5.59
206,Lompoc,US,1612753697,34.6391,-120.4579,53.6,87,75,3.44
207,Ābdānān,IR,1612753630,32.9926,47.4198,46.27,79,0,3.04
208,Port Elizabeth,ZA,1612753642,-33.918,25.5701,64.4,77,0,10.36
209,Oddur,SO,1612753698,4.1213,43.8894,66.9,81,26,18.7
210,Cabedelo,BR,1612753698,-6.9811,-34.8339,80.6,83,40,5.75
211,Shenzhen,CN,1612753505,22.5455,114.0683,75.0,63,46,1.01
212,Tilichiki,RU,1612753698,60.4667,166.1,15.04,95,89,12.37
213,Ponta do Sol,PT,1612753688,32.6667,-17.1,57.99,77,37,3.0
214,Belyy Yar,RU,1612753698,53.6039,91.3903,5.0,92,100,3.6
215,Khāsh,IR,1612753698,28.2211,61.2158,44.91,47,98,3.0
216,Muros,ES,1612753699,42.7762,-9.0603,54.0,85,41,7.0
217,Yarmouth,US,1612753699,41.7057,-70.2286,35.01,100,90,18.41
218,Tomatlán,MX,1612753699,19.9333,-105.25,65.88,94,10,1.34
219,São Félix do Xingu,BR,1612753651,-6.6447,-51.995,71.91,96,97,1.9
220,Flinders,AU,1612753699,-34.5833,150.8552,73.0,74,52,3.0
221,Maniwaki,CA,1612753699,46.3834,-75.966,10.4,56,0,2.3
222,Hailey,US,1612753699,43.5196,-114.3153,30.2,43,1,6.06
223,St. George's,GD,1612753699,12.0564,-61.7485,78.8,78,40,14.97
224,Tanout,NE,1612753688,14.9709,8.8879,61.79,25,81,9.75
225,Sioux Lookout,CA,1612753458,50.1001,-91.917,-18.4,57,1,8.05
226,Chokurdakh,RU,1612753646,70.6333,147.9167,-13.72,89,99,6.85
227,Salalah,OM,1612753700,17.0151,54.0924,68.0,77,20,3.44
228,Jining,CN,1612753499,35.405,116.5814,41.95,49,92,5.59
229,Tuatapere,NZ,1612753700,-46.1333,167.6833,66.42,68,100,1.1
230,Luján,AR,1612753700,-34.5703,-59.105,75.99,87,0,12.64
231,Vanavara,RU,1612753700,60.34,102.2797,24.98,97,100,11.41
232,Sennar,SD,1612753700,13.5691,33.5672,60.04,51,15,9.06
233,Truth or Consequences,US,1612753700,33.1284,-107.2528,60.8,14,1,14.97
234,Colares,PT,1612753701,38.7992,-9.4469,55.99,94,8,15.01
235,Azángaro,PE,1612753701,-14.9167,-70.2167,46.6,81,98,3.67
236,Ayan,RU,1612753701,56.45,138.1667,-2.4,82,100,21.59
237,Segovia,ES,1612753701,41.1667,-4.0,42.01,94,100,13.58
238,Chaoyang,CN,1612753701,41.5703,120.4586,23.7,67,0,5.75
239,Cassilândia,BR,1612753701,-19.1133,-51.7342,68.16,70,0,3.38
240,Yellowknife,CA,1612753701,62.456,-114.3525,-33.0,74,40,9.22
241,Carnarvon,AU,1612753432,-24.8667,113.6333,82.4,100,40,17.27
242,Marsh Harbour,BS,1612753512,26.5412,-77.0636,75.02,89,23,9.75
243,Arrondissement de Dole,FR,1612753702,47.0833,5.5,37.4,87,90,11.5
244,Namatanai,PG,1612753674,-3.6667,152.4333,85.91,68,28,7.58
245,Nhulunbuy,AU,1612753702,-12.2333,136.7667,82.4,83,75,14.97
246,Qiqihar,CN,1612753702,47.3408,123.9672,3.85,84,0,6.93
247,Madang,PG,1612753702,-5.2246,145.7966,83.86,69,100,3.36
248,Mahibadhoo,MV,1612753702,3.7833,72.9667,81.25,74,26,14.61
249,Suleja,NG,1612753703,9.1758,7.1808,71.6,49,64,5.75
250,Tiznit Province,MA,1612753703,29.5833,-9.5,50.13,85,72,1.74
251,Vryburg,ZA,1612753703,-26.9566,24.7284,63.68,94,0,6.67
252,Bethel,US,1612753667,41.3712,-73.414,28.4,69,90,6.91
253,Warrnambool,AU,1612753703,-38.3833,142.4833,63.0,72,82,15.7
254,Lagos,NG,1612753630,6.5833,3.75,82.4,89,40,3.09
255,Coromandel,BR,1612753704,-18.4733,-47.2003,64.11,95,94,3.09
256,Hamilton,US,1612753447,39.1834,-84.5333,18.0,48,40,10.36
257,Surgut,RU,1612753704,61.25,73.4167,6.8,85,40,11.18
258,Talaya,RU,1612753704,61.3833,152.75,-8.07,87,100,10.45
259,Manokwari,ID,1612753596,-0.8667,134.0833,82.9,74,93,4.27
260,Inhambane,MZ,1612753704,-23.865,35.3833,78.06,85,95,8.48
261,Gizo Government Station,SB,1612753704,-8.103,156.8419,85.06,74,100,11.97
262,Rio Grande,BR,1612753690,-32.035,-52.0986,68.0,84,30,10.87
263,Berlevåg,NO,1612753705,70.8578,29.0864,24.69,91,100,26.66
264,Ancud,CL,1612753705,-41.8697,-73.8203,62.01,77,0,5.75
265,Qaqortoq,GL,1612753705,60.7167,-46.0333,39.2,28,20,39.12
266,Wuwei,CN,1612753705,37.9281,102.6414,37.45,51,0,2.48
267,Margherita di Savoia,IT,1612753705,41.3742,16.1502,55.99,87,20,4.61
268,Morro Bay,US,1612753705,35.3658,-120.8499,55.0,94,6,5.75
269,Khandyga,RU,1612753705,62.6667,135.6,-24.36,83,100,2.8
270,Bumba,CD,1612753706,2.1833,22.4667,67.64,47,100,2.3
271,Taganak,PH,1612753706,6.0833,118.3,84.2,79,40,6.91
272,Fort Nelson,CA,1612753706,58.8053,-122.7002,-18.4,69,90,4.61
273,Anadyr,RU,1612753706,64.75,177.4833,10.4,52,100,24.61
274,Rebrikha,RU,1612753706,53.0733,82.3408,15.8,95,90,7.58
275,Vila Franca do Campo,PT,1612753444,37.7167,-25.4333,55.4,88,75,6.91
276,Emerald,AU,1612753706,-23.5333,148.1667,93.99,52,75,8.05
277,Loandjili,CG,1612753707,-4.7561,11.8578,78.8,94,40,2.3
278,Astolfo Dutra,BR,1612753707,-21.3153,-42.8622,67.39,95,100,2.33
279,Oranjestad,AW,1612753707,12.524,-70.027,78.8,78,20,19.57
280,Laguna,US,1612753707,38.421,-121.4238,55.0,58,1,4.61
281,Fukuechō,JP,1612753707,32.6881,128.8419,48.2,57,40,18.41
282,Malbork,PL,1612753707,54.0359,19.0266,7.0,100,15,13.18
283,Aswān,EG,1612753707,24.0934,32.907,57.52,53,0,9.57
284,Inuvik,CA,1612753707,68.3499,-133.7218,-23.8,75,100,10.36
285,Nuevo Ideal,MX,1612753708,24.8875,-105.0728,55.9,37,100,6.22
286,Meadow Lake,US,1612753708,34.8014,-106.5436,50.0,12,20,8.05
287,Nemuro,JP,1612753708,43.3236,145.575,17.6,57,20,10.36
288,Quatre Cocos,MU,1612753708,-20.2078,57.7625,82.0,78,40,8.05
289,Shanting,CN,1612753708,35.0753,117.4578,40.24,52,94,7.47
290,Douentza,ML,1612753708,14.9951,-2.9517,70.03,23,97,6.38
291,Leh,IN,1612753708,34.1667,77.5833,14.97,60,63,1.9
292,Celestún,MX,1612753709,20.8667,-90.4,73.24,86,0,10.33
293,Mehamn,NO,1612753709,71.0357,27.8492,23.59,93,100,23.96
294,Lodwar,KE,1612753709,3.1191,35.5973,79.21,52,93,4.18
295,Geraldton,AU,1612753709,-28.7667,114.6,75.2,64,90,14.97
296,Lakatoro,VU,1612753709,-16.0999,167.4164,85.3,54,0,3.42
297,Solnechnyy,RU,1612753709,50.7214,136.6319,5.97,88,100,1.39
298,Fortuna,US,1612753446,40.5982,-124.1573,45.0,93,1,5.75
299,Maní,CO,1612753709,4.8172,-72.2886,82.58,56,48,7.14
300,Kavaratti,IN,1612753455,10.5669,72.642,81.72,65,97,9.26
301,Khatanga,RU,1612753436,71.9667,102.5,-25.22,80,36,13.06
302,Pokaran,IN,1612753710,26.9167,71.9167,65.14,26,0,4.76
303,Honiara,SB,1612753710,-9.4333,159.95,86.49,69,2,9.86
304,Galveston,US,1612753710,29.3669,-94.9669,59.0,76,1,13.8
305,Walvis Bay,NA,1612753446,-22.9575,14.5053,63.0,94,100,16.11
306,Dwārka,IN,1612753683,22.2394,68.9678,69.31,48,0,10.56
307,Bambanglipuro,ID,1612753710,-7.95,110.2833,86.18,66,91,2.46
308,Coalinga,US,1612753710,36.1397,-120.3602,54.0,68,100,0.87
309,Caravelas,BR,1612753711,-17.7125,-39.2481,75.78,93,100,6.62
310,Mount Isa,AU,1612753711,-20.7333,139.5,89.6,55,75,11.5
311,Dukhovnitskoye,RU,1612753711,52.4828,48.2137,-5.75,88,5,12.97
312,Banda Aceh,ID,1612753711,5.5577,95.3222,83.66,70,8,10.38
313,San Cristobal,VE,1612753711,7.7669,-72.225,65.97,88,100,0.78
314,Brejo,BR,1612753711,-3.6844,-42.7503,73.87,96,0,4.83
315,Benjamín Hill,MX,1612753711,30.1667,-111.1,61.0,39,71,5.08
316,Makakilo City,US,1612753657,21.3469,-158.0858,77.0,47,1,6.91
317,Teknāf,BD,1612753712,20.8624,92.3058,70.75,48,0,12.93
318,Boralday,KZ,1612753712,43.3578,76.8594,33.8,86,90,2.24
319,Masakin,TN,1612753712,35.7292,10.5808,55.99,87,0,6.91
320,Montesarchio,IT,1612753712,41.0654,14.6402,54.0,80,100,1.01
321,Ust-Nera,RU,1612753712,64.5667,143.2,-2.11,81,96,9.91
322,Kalabo,ZM,1612753712,-14.97,22.6814,68.34,93,100,10.07
323,Westport,US,1612753712,41.1415,-73.3579,30.2,80,90,12.66
324,Aransas Pass,US,1612753712,27.9095,-97.15,64.0,77,1,8.05
325,Northam,GB,1612753713,51.0333,-4.2167,35.01,72,91,15.01
326,Veinticinco de Mayo,AR,1612753713,-35.4323,-60.1727,66.99,66,0,7.0
327,Collie,AU,1612753713,-33.3667,116.15,66.99,87,84,11.01
328,Nanortalik,GL,1612753713,60.1432,-45.2371,31.84,86,94,16.71
329,Tsimmerbude,RU,1612753713,54.675,20.1347,6.8,78,0,13.42
330,Rawson,AR,1612753449,-43.3002,-65.1023,57.33,63,0,14.03
331,Mandapam,IN,1612753713,9.2833,79.1167,77.92,75,89,22.1
332,Miracema do Tocantins,BR,1612753714,-9.5618,-48.3967,71.62,91,100,2.1
333,Hattiesburg,US,1612753714,31.3271,-89.2903,39.99,87,1,3.38
334,Shelburne,CA,1612753714,44.0787,-80.2041,8.01,90,79,10.58
335,Zaozyornoye,UA,1612753714,45.1582,33.2787,41.0,82,100,12.88
336,Naviraí,BR,1612753714,-23.065,-54.1906,66.74,90,0,2.46
337,Dunyapur,PK,1612753714,29.7995,71.7196,48.2,87,0,1.43
338,Garoowe,SO,1612753714,8.4054,48.4845,67.26,85,44,8.3
339,Andenes,NO,1612753714,69.3143,16.1194,32.0,74,100,5.75
340,Kruisfontein,ZA,1612753714,-34.0033,24.7314,62.01,86,66,1.01
341,Coello,CO,1612753715,4.2891,-74.8982,80.28,65,56,2.77
342,Dicabisagan,PH,1612753715,17.0818,122.4157,80.94,69,5,5.3
343,Laas,IT,1612753715,46.6166,10.7002,43.0,93,90,9.22
344,Marzuq,YE,1612753441,14.4,46.4667,55.81,48,0,4.21
345,Del Rio,US,1612753715,29.3627,-100.8968,66.2,42,1,8.05
346,Saint Paul Harbor,US,1612753715,57.79,-152.4072,28.4,69,1,3.44
347,Sorong,ID,1612753654,-0.8833,131.25,85.55,67,100,4.41
348,Lavrentiya,RU,1612753452,65.5833,-171.0,-10.82,85,17,10.47
349,Grand Gaube,MU,1612753652,-20.0064,57.6608,82.0,75,24,5.99
350,Esmeralda,CU,1612753716,21.8525,-78.1169,73.4,94,40,5.75
351,Dickinson,US,1612753716,29.4608,-95.0513,54.0,76,1,4.61
352,Matara,LK,1612753716,5.9485,80.5353,79.02,83,4,3.24
353,Zhigansk,RU,1612753716,66.7697,123.3711,-26.18,80,0,6.78
354,Lagoa,PT,1612753716,39.05,-27.9833,58.01,82,14,24.36
355,Panguna,PG,1612753717,-6.3164,155.4848,79.0,85,64,3.06
356,Karasburg,NA,1612753717,-28.0167,18.75,64.94,36,0,6.35
357,Mil'kovo,RU,1612753709,54.7167,158.6167,24.4,96,100,4.05
358,Terrace,CA,1612753436,54.5163,-128.6035,19.4,68,20,13.8
359,Corralillo,CU,1612753717,22.9819,-80.5856,73.35,84,0,6.73
360,Iwanai,JP,1612753717,42.9744,140.5089,20.35,93,100,17.4
361,Robstown,US,1612753630,27.7903,-97.6689,62.6,72,1,8.05
362,Jalingo,NG,1612753718,8.8833,11.3667,73.49,20,100,3.71
363,Henties Bay,NA,1612753690,-22.116,14.2845,63.0,92,97,5.01
364,Lookan,PH,1612753718,5.037,120.1027,82.45,76,100,6.26
365,Alofi,NU,1612753675,-19.0595,-169.9187,86.0,70,75,10.36
366,Korla,CN,1612753451,41.7597,86.1469,36.27,65,95,4.47
367,São Filipe,CV,1612753719,14.8961,-24.4956,68.43,76,100,13.44
368,Tezu,IN,1612753709,27.9167,96.1667,72.1,22,0,2.8
369,Carndonagh,IE,1612753719,55.25,-7.2667,32.13,90,74,16.31
370,Āsind,IN,1612753628,25.7333,74.3333,61.56,32,0,2.62
371,San Julián,MX,1612753719,21.0167,-102.1667,60.58,38,21,13.56
372,La Paz,BO,1612753532,-16.5,-68.15,46.4,81,75,10.36
373,Alvorada,BR,1612753719,-12.48,-49.1247,68.83,98,100,3.47
374,Coquimbo,CL,1612753719,-29.9533,-71.3436,60.8,77,0,2.3
375,Olden,NO,1612753719,61.8364,6.8064,16.0,82,0,1.99
376,Pisco,PE,1612753720,-13.7,-76.2167,73.4,78,20,5.75
377,Koster,ZA,1612753720,-25.863,26.8976,57.06,99,22,3.53
378,Rudnyy,KZ,1612753720,52.9594,63.1206,-4.0,77,0,17.9
379,Manaus,BR,1612753506,-3.1019,-60.025,75.2,94,0,4.61
380,Srednekolymsk,RU,1612753720,67.45,153.6833,-1.82,84,60,6.64
381,Vestmanna,FO,1612753720,62.1564,-7.1664,35.6,64,75,17.27
382,Niefern-Öschelbronn,DE,1612753720,48.9167,8.7833,37.99,96,100,0.72
383,Ilulissat,GL,1612753721,69.2167,-51.1,21.2,38,0,25.32
384,Deputatsky,RU,1612753721,69.3,139.9,-19.52,86,59,2.68
385,Saint Anthony,US,1612753721,45.0205,-93.218,-2.2,55,90,6.91
386,Hohhot,CN,1612753721,40.8106,111.6522,23.0,42,20,4.47
387,Abnūb,EG,1612753721,27.2696,31.1511,50.0,81,0,3.44
388,Ixtapa,MX,1612753488,20.7,-105.2,69.01,83,1,1.41
389,Abhā,SA,1612753721,18.2164,42.5053,51.8,57,0,5.75
390,Kasane,BW,1612753721,-17.8167,25.15,66.15,97,100,5.12
391,Ürümqi,CN,1612753721,43.801,87.6005,12.2,92,28,2.24
392,Savinka,RU,1612753722,50.0785,47.0994,4.41,88,8,13.96
393,Calvinia,ZA,1612753722,-31.4707,19.776,57.87,63,0,4.05
394,Tigil',RU,1612753722,57.8,158.6667,26.67,92,1,19.13
395,Yatou,CN,1612753722,37.15,122.3833,33.49,76,0,14.43
396,Rundu,NA,1612753722,-17.9333,19.7667,68.13,93,100,5.12
397,Marovoay,MG,1612753722,-16.1,46.6333,75.2,94,40,5.75
398,Coari,BR,1612753722,-4.085,-63.1414,75.58,96,100,1.34
399,Launceston,AU,1612753722,-41.45,147.1667,68.0,45,60,8.05
400,Ilek,RU,1612753723,51.5271,53.3831,-8.19,89,90,13.27
401,Piranshahr,IR,1612753723,36.701,45.1413,37.06,77,91,4.81
402,Itaituba,BR,1612753723,-4.2761,-55.9836,78.8,89,40,0.94
403,Souillac,MU,1612753723,-20.5167,57.5167,78.8,78,40,8.05
404,Carutapera,BR,1612753449,-1.195,-46.02,76.86,91,10,6.13
405,Mezen',RU,1612753723,65.8522,44.24,-21.53,87,35,4.79
406,Hokitika,NZ,1612753724,-42.7167,170.9667,64.67,78,100,4.56
407,West Bay,KY,1612753724,19.3667,-81.4167,78.01,78,0,4.61
408,Spasskoye,RU,1612753724,44.6108,132.7969,0.54,89,66,6.85
409,Kirakira,SB,1612753724,-10.4544,161.9205,84.99,72,12,9.19
410,Nazareno,MX,1612753724,25.3833,-103.4167,69.8,19,40,0.54
411,South Yuba City,US,1612753724,39.1166,-121.6391,55.4,66,1,5.75
412,Kulhudhuffushi,MV,1612753642,6.6221,73.07,81.54,72,35,9.64
413,Wanning,CN,1612753725,18.8003,110.3967,74.66,77,87,6.87
414,Eureka,US,1612753725,40.8021,-124.1637,46.99,84,100,1.01
415,Ryōtsu-minato,JP,1612753437,38.0833,138.4333,32.0,80,75,16.11
416,Kaeo,NZ,1612753725,-35.1,173.7833,73.0,68,69,10.0
417,Mount Gambier,AU,1612753454,-37.8333,140.7667,64.4,59,90,13.8
418,Shenjiamen,CN,1612753725,29.9576,122.298,47.21,75,100,19.75
419,Valparaíso,CL,1612753725,-33.0393,-71.6273,57.2,100,0,6.62
420,Rāzole,IN,1612753725,16.4833,81.8333,73.4,78,89,6.91
421,Maceió,BR,1612753707,-9.6658,-35.7353,73.4,94,40,4.61
422,Tarnogskiy Gorodok,RU,1612753726,60.4997,43.5761,-23.33,85,95,7.9
423,Lahat,ID,1612753726,-3.8,103.5333,82.62,73,81,4.21
424,Kargasok,RU,1612753726,59.0556,80.8572,6.87,92,100,12.66
425,Chase,CA,1612753726,50.8165,-119.6857,24.8,74,100,2.28
426,Te Anau,NZ,1612753726,-45.4167,167.7167,69.1,54,100,5.91
427,Kidal,ML,1612753727,18.4411,1.4078,65.59,27,99,14.38
428,Ponta Delgada,PT,1612753727,37.7333,-25.6667,55.4,88,75,6.91
429,San Miguel de Tucumán,AR,1612753727,-26.8241,-65.2226,78.8,78,0,2.39
430,Omiš,HR,1612753727,43.4447,16.6886,55.4,88,75,12.66
431,Sakakah,SA,1612753727,29.9697,40.2064,44.6,87,0,4.61
432,Uruguaiana,BR,1612753727,-29.7547,-57.0883,73.4,78,0,3.44
433,Leshukonskoye,RU,1612753727,64.8989,45.7622,-23.69,86,74,7.18
434,Necochea,AR,1612753728,-38.5473,-58.7368,57.99,77,23,10.85
435,São João da Barra,BR,1612753446,-21.6403,-41.0511,70.72,96,100,7.7
436,Yangi Marg`ilon,UZ,1612753728,40.4272,71.7189,41.0,75,71,4.61
437,Mopipi,BW,1612753728,-21.1833,24.8833,69.91,80,100,11.56
438,Okhotsk,RU,1612753649,59.3833,143.3,19.0,88,100,20.98
439,Ous,RU,1612753728,60.9058,61.5186,-10.71,90,100,5.59
440,Dingle,PH,1612753728,10.9995,122.6711,76.6,91,100,11.03
441,Zharkent,KZ,1612753729,44.1628,80.0,37.09,74,97,2.13
442,Twin Falls,US,1612753729,42.3505,-114.6445,32.0,59,1,6.91
443,Suntar,RU,1612753729,62.1444,117.6319,2.23,92,99,6.62
444,Hailar,CN,1612753451,49.2,119.7,-7.51,89,4,7.78
445,Shar,KZ,1612753729,49.5886,81.0453,25.18,94,89,18.28
446,Shaunavon,CA,1612753729,49.6501,-108.4181,-23.8,76,0,2.3
447,Monrovia,LR,1612753729,6.3005,-10.7969,75.2,94,20,6.49
448,New Sibonga,PH,1612753729,7.5609,125.9298,78.8,94,90,10.36
449,Brae,GB,1612753730,60.3964,-1.353,31.28,89,76,3.74
450,Okitipupa,NG,1612753730,6.5047,4.7839,76.84,97,100,1.59
451,Freeport,US,1612753477,40.6576,-73.5832,30.2,86,90,9.22
452,Fountain Hills,US,1612753497,33.6117,-111.7174,62.6,29,1,1.34
453,Palu,ID,1612753730,-0.8917,119.8707,85.57,66,85,3.91
454,Poanas,MX,1612753730,25.7667,-103.6167,69.8,19,40,1.86
455,Petropavlovsk-Kamchatskiy,RU,1612753730,53.0452,158.6483,24.8,86,90,11.18
456,Maragogi,BR,1612753691,-9.0122,-35.2225,77.14,84,78,7.0
457,Ust'-Kut,RU,1612753731,56.7938,105.7672,22.35,93,100,5.41
458,Lahaina,US,1612753214,20.8783,-156.6825,78.8,50,1,13.8
459,Sai Buri,TH,1612753731,6.7013,101.6168,82.4,74,40,5.75
460,Shitanjing,CN,1612753731,39.2342,106.3439,34.38,67,18,2.39
461,Sarh,TD,1612753731,9.1429,18.3923,71.6,20,0,3.74
462,Altamont,US,1612753731,42.2068,-121.7372,35.6,25,1,3.2
463,Nome,US,1612753731,64.5011,-165.4064,-2.99,71,1,5.75
464,Severo-Kuril'sk,RU,1612753718,50.6789,156.125,25.03,89,19,13.06
465,Östersund,SE,1612753732,63.1792,14.6357,15.8,86,90,8.05
466,Alta Floresta,BR,1612753732,-9.8756,-56.0861,70.27,98,100,2.24
467,Katsuura,JP,1612753732,35.1333,140.3,50.0,33,6,8.99
468,Ouégoa,NC,1612753732,-20.35,164.4333,82.2,66,40,7.81
469,Neuquén,AR,1612753670,-38.9516,-68.0591,68.0,45,75,18.41
470,Tommot,RU,1612753732,58.9564,126.2925,-9.54,83,0,1.14
471,Aleppo Governorate,SY,1612753732,36.25,37.5,49.1,93,0,6.87
472,Praia da Vitória,PT,1612753733,38.7333,-27.0667,55.99,82,20,12.95
473,Sakaiminato,JP,1612753733,35.55,133.2333,41.0,93,75,9.22
474,Salinas,US,1612753623,36.6777,-121.6555,53.6,82,1,4.61
475,Norman Wells,CA,1612753442,65.282,-126.8329,-31.0,75,20,5.75
476,Thunder Bay,CA,1612753730,48.4001,-89.3168,-11.0,53,1,12.66
477,Ranong,TH,1612753733,9.9658,98.6348,86.0,58,0,5.75
478,Brigantine,US,1612753733,39.4101,-74.3646,34.0,75,1,13.8
479,Alakurtti,RU,1612753733,66.9672,30.3491,9.0,91,32,1.99
480,Quelimane,MZ,1612753734,-17.8786,36.8883,74.1,95,34,2.64
481,Lata,PT,1612753734,40.1629,-8.3327,53.01,92,52,8.01
482,The Valley,AI,1612753734,18.217,-63.0578,78.8,69,20,8.05
483,Dorado,PR,1612753696,18.4588,-66.2677,73.0,86,20,8.77
484,Hirara,JP,1612753734,24.8,125.2833,73.4,64,40,12.66
485,Kozhva,RU,1612753734,65.1073,57.0459,-15.77,88,100,12.17
486,Kaduqli,SD,1612753734,11.0167,29.7167,59.09,33,5,8.46
487,Gaza,PS,1612753735,31.5,34.4667,52.0,93,0,3.44
488,Marsá Maţrūḩ,EG,1612753735,31.3525,27.2453,53.6,87,0,9.22
489,Glendive,US,1612753735,47.1053,-104.7125,-14.8,76,1,4.61
490,Longmeadow,US,1612753735,42.0501,-72.5829,28.4,69,75,9.22
491,Cockburn Town,TC,1612753445,21.4612,-71.1419,77.99,84,32,17.0
492,Shenkursk,RU,1612753736,62.1091,42.896,-22.9,85,11,6.89
493,Sangar,RU,1612753736,63.9242,127.4739,-22.9,82,0,1.39
494,Denpasar,ID,1612753736,-8.65,115.2167,84.2,79,40,6.91
495,Pochutla,MX,1612753736,15.7432,-96.4661,78.8,73,40,9.22
496,Husavik,IS,1612753736,66.0449,-17.3389,28.4,86,0,4.61
497,Zaranj,AF,1612753736,30.9667,61.8833,42.8,42,0,1.25
498,Izumo,JP,1612753736,35.3667,132.7667,41.0,81,75,4.61
499,Naze,JP,1612753736,28.3667,129.4833,68.0,52,20,12.66
500,Taoudenni,ML,1612753737,22.6783,-3.9836,57.99,35,0,8.25
501,Booué,GA,1612753737,-0.0921,11.9385,71.6,94,74,0.45
502,Mali,GN,1612753737,12.079,-12.2982,58.93,33,87,1.39
503,Arenápolis,BR,1612753737,-14.4503,-56.8461,71.73,76,100,4.32
504,Tongzhou,CN,1612753737,39.9053,116.5994,33.8,34,0,2.24
505,Sinnamary,GF,1612753737,5.3833,-52.95,78.01,83,100,13.2
506,Tokur,RU,1612753737,53.1333,132.9,-8.18,89,100,2.59
507,Mayumba,GA,1612753737,-3.432,10.6554,77.68,86,100,3.51
508,Pereleshinskiy,RU,1612753738,51.7148,40.1953,5.0,85,75,11.18
509,Gazojak,TM,1612753738,41.1875,61.4036,45.21,83,100,7.7
510,Ullapool,GB,1612753738,57.8987,-5.1604,30.99,87,21,3.0
511,Chepareria,KE,1612753738,1.3077,35.2039,60.75,71,100,4.18
512,Esperantinópolis,BR,1612753738,-4.8667,-44.7083,73.9,94,100,1.5
513,Healesville,AU,1612753738,-37.65,145.5167,68.0,63,80,5.99
514,Garmsār,IR,1612753739,35.2182,52.3409,47.08,77,6,3.18
515,Bacolod City,PH,1612753739,10.6667,122.95,77.09,87,100,11.34
516,Kpandae,GH,1612753739,8.4689,-0.0113,79.88,71,0,5.91
517,Kahului,US,1612753665,20.8947,-156.47,75.2,57,1,9.22
518,East Stroudsburg,US,1612753739,40.9995,-75.1813,24.8,67,1,17.27
519,Sabang,ID,1612753739,5.8933,95.3214,82.31,76,4,16.69
520,Poum,NC,1612753739,-20.2333,164.0167,81.28,69,2,8.59
521,Ciudad Bolivar,VE,1612753740,8.1222,-63.5497,78.91,68,86,14.56
522,Omboué,GA,1612753740,-1.5746,9.2618,77.5,87,100,2.84
523,Nelson Bay,AU,1612753740,-32.7167,152.15,75.99,60,40,19.57
524,Rockhampton,AU,1612753740,-23.3833,150.5,96.8,46,75,3.44
525,Puerto Madero,MX,1612753740,14.7208,-92.4215,75.2,88,20,3.44
526,Cabo Rojo,PR,1612753740,18.0866,-67.1457,75.99,87,32,9.13
527,Helong,CN,1612753740,42.5397,128.9972,10.11,78,4,11.36
528,Verkhnevilyuysk,RU,1612753740,63.4453,120.3167,-8.37,89,100,7.29
529,Novy Urengoy,RU,1612753741,66.0833,76.6333,5.41,95,100,6.26
530,Kashira,RU,1612753741,54.8444,38.1669,1.4,78,40,6.98
531,Skjervøy,NO,1612753741,70.0311,20.9714,28.56,90,100,15.43
532,Marabu,MY,1612753741,4.4148,114.0089,82.4,89,40,3.44
533,Chunskiy,RU,1612753741,56.0815,99.6342,23.41,96,36,3.02
534,Mossamedes,AO,1612753742,-15.1961,12.1522,71.82,80,79,4.63
535,Balakhninskiy,RU,1612753742,58.0106,114.2769,8.31,91,100,2.68
536,Chulumani,BO,1612753742,-16.4096,-67.5263,66.51,79,77,1.3
537,Kumul,CN,1612753742,42.8,93.45,38.41,59,47,3.8
538,Kiryat Gat,IL,1612753742,31.61,34.7642,52.0,93,1,3.44
539,Harper,LR,1612753708,4.375,-7.7169,78.78,89,43,5.08
540,Fairbanks,US,1612753610,64.8378,-147.7164,-16.01,76,1,4.45
541,Bilibino,RU,1612753743,68.0546,166.4372,0.3,78,0,6.51
542,Araouane,ML,1612753743,18.9048,-3.5265,59.74,30,21,10.92
543,Mugan,CN,1612753743,35.9404,101.3842,34.9,40,0,3.65
544,Abilene,US,1612753715,32.4487,-99.7331,57.99,38,1,11.5
545,Luino,IT,1612753743,46.0019,8.7451,41.0,75,75,12.66
546,Pacific Grove,US,1612753560,36.6177,-121.9166,52.0,82,1,3.98
547,North Las Vegas,US,1612753743,36.1989,-115.1175,59.0,20,1,1.66
548,Nuuk,GL,1612753744,64.1835,-51.7216,30.2,40,0,10.36
549,Morón,AR,1612753744,-34.6534,-58.6198,75.99,71,0,3.0
550,Itoman,JP,1612753744,26.1247,127.6694,71.01,52,20,18.41
551,Taldan,RU,1612753744,53.6667,124.8,-3.05,86,0,6.11
552,Zhuhai,CN,1612753505,22.2769,113.5678,73.4,78,83,10.36
553,Praia,CV,1612753704,14.9215,-23.5087,68.0,64,75,19.57
554,Zarautz,ES,1612753744,43.2844,-2.1699,52.0,80,100,5.99
555,Ulverstone,AU,1612753745,-41.15,146.1667,69.01,58,11,4.0
556,Rocha,UY,1612753745,-34.4833,-54.3333,63.55,88,67,3.83
557,Morondava,MG,1612753745,-20.2833,44.2833,79.36,79,100,8.32
558,Abalak,RU,1612753745,58.1286,68.5944,-7.76,89,63,8.66
559,Rosarito,MX,1612753745,32.3333,-117.0333,55.99,82,1,2.33
560,Port Moresby,PG,1612753745,-9.4431,147.1797,89.6,62,40,11.5
561,Yerbogachën,RU,1612753746,61.2767,108.0108,26.96,98,100,8.86
562,Dunedin,NZ,1612753746,-45.8742,170.5036,61.0,88,100,1.01
563,Hutchinson,US,1612753645,38.0608,-97.9298,15.8,86,90,9.22
564,Brighton,GB,1612753746,50.8284,-0.1395,30.0,95,100,7.0
565,Jiuquan,CN,1612753746,39.7432,98.5174,32.36,70,100,4.07
566,Mpraeso,GH,1612753746,6.5932,-0.7346,75.16,88,95,5.84
567,Broken Hill,AU,1612753746,-31.95,141.4333,77.0,31,0,12.66
568,Alihe,CN,1612753746,50.5667,123.7167,1.85,80,0,4.85
569,Luena,AO,1612753747,-11.7833,19.9167,63.03,96,100,7.07
570,Sinazongwe,ZM,1612753747,-17.2614,27.4618,74.37,86,99,3.0
571,Hay River,CA,1612753747,60.8156,-115.7999,-36.4,67,100,4.61
572,Waingapu,ID,1612753647,-9.6567,120.2641,86.49,66,100,7.2
