,City,Country,Date,Latitude,Longitude,Max Temperature,Humidity,Cloudiness,Wind Speed
0,Faya,SA,1612823995,18.3851,42.4509,50.0,81,40,8.05
1,Aljezur,PT,1612823734,37.3191,-8.8033,54.0,100,53,3.0
2,Kapaa,US,1612823995,22.0752,-159.319,75.99,60,75,14.97
3,Cape Town,ZA,1612823936,-33.9258,18.4232,70.0,83,20,20.71
4,Castro,BR,1612823996,-24.7911,-50.0119,64.9,79,43,8.75
5,Vzmorye,RU,1612823996,54.6961,20.2361,17.6,86,90,24.61
6,Hithadhoo,MV,1612823996,-0.6,73.0833,82.42,78,88,10.58
7,Busselton,AU,1612823996,-33.65,115.3333,55.0,92,94,1.99
8,Ancud,CL,1612823996,-41.8697,-73.8203,77.0,47,0,8.05
9,Houston,US,1612823997,29.7633,-95.3633,70.0,73,75,14.97
10,Ayan,RU,1612823997,56.45,138.1667,-4.54,79,100,15.35
11,Thompson,CA,1612823691,55.7435,-97.8558,-14.8,70,90,12.66
12,Hobart,AU,1612823997,-42.8794,147.3294,57.99,54,75,11.5
13,Iqaluit,CA,1612823997,63.7506,-68.5145,21.2,86,75,4.5
14,Mahibadhoo,MV,1612823998,3.7833,72.9667,81.84,72,10,18.39
15,Lata,PT,1612823998,40.1629,-8.3327,52.0,91,97,1.99
16,Chui,UY,1612823998,-33.6971,-53.4616,67.19,92,91,6.89
17,Pevek,RU,1612823998,69.7008,170.3133,-12.05,80,98,1.14
18,Vaini,TO,1612823998,-21.2,-175.2,80.6,94,90,12.66
19,Alekseyevsk,RU,1612823998,57.8406,108.3492,14.61,95,61,3.4
20,Jalu,LY,1612823999,29.0331,21.5482,59.0,47,100,10.67
21,George Town,MY,1612823822,5.4112,100.3354,80.01,83,40,2.3
22,Kayes,ML,1612823999,14.0,-11.0,76.5,18,0,8.12
23,Lagoa,PT,1612823999,39.05,-27.9833,59.5,76,100,26.78
24,Yellowknife,CA,1612823804,62.456,-114.3525,-27.4,68,90,19.57
25,Puerto Ayora,EC,1612823877,-0.7393,-90.3518,80.6,83,75,10.36
26,Kopavogur,IS,1612823999,64.1123,-21.913,33.8,55,0,11.5
27,Rio Grande,BR,1612823959,-32.035,-52.0986,66.99,92,80,14.38
28,Ribeira Grande,PT,1612824000,38.5167,-28.7,60.8,82,40,17.27
29,Bengkulu,ID,1612824000,-3.8004,102.2655,75.67,75,98,5.86
30,Ushuaia,AR,1612823710,-54.8,-68.3,64.4,59,0,11.5
31,Skibbereen,IE,1612824000,51.55,-9.2667,35.6,64,75,21.85
32,Albany,US,1612824001,42.6001,-73.9662,21.99,51,72,0.69
33,Wysokie Mazowieckie,PL,1612824001,52.9166,22.5171,18.0,83,100,12.26
34,Kayalpattinam,IN,1612824001,8.5667,78.1167,74.5,74,17,14.07
35,Punta Arenas,CL,1612824001,-53.15,-70.9167,66.2,55,0,11.5
36,Te Anau,NZ,1612824003,-45.4167,167.7167,55.24,92,100,6.02
37,Katsuura,JP,1612823942,35.1333,140.3,35.01,29,16,3.0
38,Tuktoyaktuk,CA,1612824004,69.4541,-133.0374,-41.8,74,1,3.44
39,Avarua,CK,1612824004,-21.2078,-159.775,84.2,79,63,8.05
40,Tepetzintla,MX,1612824004,21.1667,-97.8333,75.09,81,21,8.48
41,Beringovskiy,RU,1612824004,63.05,179.3167,0.84,93,100,6.87
42,Kez,RU,1612824005,57.8979,53.7152,-17.66,86,100,9.42
43,Catuday,PH,1612824005,16.2923,119.8062,75.83,76,89,8.52
44,Bondo,CD,1612824005,3.8146,23.6866,68.04,29,80,1.34
45,Rikitea,PF,1612824005,-23.1203,-134.9692,77.77,69,19,4.38
46,Uruçuí,BR,1612824006,-7.2294,-44.5561,76.89,86,95,7.63
47,Souillac,MU,1612824006,-20.5167,57.5167,78.8,83,40,4.61
48,Barrow,US,1612824006,71.2906,-156.7887,-29.2,84,1,11.5
49,Fuerte Olimpo,PY,1612824006,-21.0415,-57.8738,78.4,46,0,3.44
50,Balaipungut,ID,1612824006,1.05,101.2833,73.4,94,75,5.75
51,Port Elizabeth,ZA,1612824006,-33.918,25.5701,68.0,83,0,3.44
52,Chokurdakh,RU,1612824007,70.6333,147.9167,-12.19,85,0,10.65
53,Mataura,NZ,1612823897,-46.1927,168.8643,56.64,95,100,4.21
54,Tegul'det,RU,1612824007,57.3064,88.1667,17.42,92,89,18.39
55,Saldanha,ZA,1612824007,-33.0117,17.9442,66.2,82,0,14.97
56,Kjøpsvik,NO,1612824007,68.097,16.3742,28.99,74,75,3.44
57,Upernavik,GL,1612823861,72.7868,-56.1549,15.82,77,0,3.49
58,Nyrob,RU,1612824008,60.733,56.7202,-12.93,88,100,7.02
59,Codrington,AU,1612824008,-38.2667,141.9667,60.76,68,7,12.35
60,Shestakovo,RU,1612824008,56.4915,103.96,17.74,94,87,5.59
61,Vila Velha,BR,1612824008,-20.3297,-40.2925,79.0,94,75,3.44
62,Batemans Bay,AU,1612824009,-35.7167,150.1833,69.01,59,74,3.0
63,Boyolangu,ID,1612824009,-8.1181,111.8935,75.09,88,99,6.29
64,Gargaliánoi,GR,1612824009,37.0667,21.6333,57.0,87,19,3.44
65,Fairbanks,US,1612824005,64.8378,-147.7164,-5.01,77,1,11.5
66,Hofn,IS,1612824009,64.2539,-15.2082,32.68,89,100,16.69
67,Butaritari,KI,1612824010,3.0707,172.7902,81.97,83,71,19.84
68,College,US,1612824010,64.8569,-147.8028,-5.01,77,1,11.5
69,Hermanus,ZA,1612823717,-34.4187,19.2345,64.99,89,7,4.63
70,Lebu,CL,1612824010,-37.6167,-73.65,62.2,86,7,9.42
71,Vostok,RU,1612824010,46.4856,135.8833,-13.85,89,100,6.22
72,Nelson Bay,AU,1612824010,-32.7167,152.15,75.99,68,75,12.66
73,Saint-Philippe,RE,1612824010,-21.3585,55.7679,77.0,73,0,3.44
74,Bluff,NZ,1612824011,-46.6,168.3333,55.67,94,100,12.46
75,Sitka,US,1612824012,57.0531,-135.33,24.8,54,90,10.36
76,Sorgun,TR,1612824012,39.8101,35.186,45.95,63,76,11.05
77,Zyryanka,RU,1612824013,65.75,150.85,-23.01,86,98,5.1
78,Camocim,BR,1612824013,-2.9022,-40.8411,78.58,88,100,11.5
79,Hilo,US,1612823832,19.7297,-155.09,82.4,47,20,3.44
80,Dikson,RU,1612824013,73.5069,80.5464,-30.91,85,69,13.35
81,Leningradskiy,RU,1612824013,69.3833,178.4167,-21.98,84,79,10.56
82,Rivadavia,AR,1612824013,-33.1905,-68.4608,60.8,77,75,11.5
83,Marsá Maţrūḩ,EG,1612824013,31.3525,27.2453,62.6,36,0,12.66
84,Del Rio,US,1612823737,29.3627,-100.8968,80.6,34,1,6.91
85,Duluth,US,1612823768,46.7833,-92.1066,0.0,38,1,16.11
86,Hong Kong,HK,1612823900,22.2855,114.1577,64.99,77,97,3.0
87,Meulaboh,ID,1612824014,4.1363,96.1285,76.12,87,2,3.33
88,Kaitangata,NZ,1612824014,-46.2817,169.8464,63.0,88,100,11.01
89,Qaanaaq,GL,1612824014,77.484,-69.3632,20.37,80,99,6.82
90,Kahului,US,1612823911,20.8947,-156.47,78.8,57,40,23.02
91,Ostrovnoy,RU,1612824014,68.0531,39.5131,3.67,89,95,21.45
92,Thomaston,US,1612824014,32.8882,-84.3266,59.0,54,1,3.44
93,Anadyr,RU,1612824015,64.75,177.4833,10.4,72,20,15.66
94,Pisco,PE,1612824015,-13.7,-76.2167,77.0,69,0,19.57
95,Manali,IN,1612824015,13.1667,80.2667,73.4,83,40,7.0
96,Narsaq,GL,1612824015,60.9167,-46.05,39.2,28,75,37.98
97,Bethel,US,1612824015,41.3712,-73.414,26.6,39,1,3.44
98,Jamestown,US,1612824015,42.097,-79.2353,21.99,63,90,8.05
99,Bernalillo,US,1612824015,35.05,-106.6673,66.99,5,75,13.8
100,Labuhan,ID,1612824016,-6.8844,112.2051,78.06,86,75,8.66
101,Stornoway,GB,1612824016,58.2093,-6.3865,33.8,60,17,10.36
102,Provincia di Verona,IT,1612823815,45.4167,11.0333,46.0,81,75,2.3
103,Tasiilaq,GL,1612824016,65.6145,-37.6368,23.0,54,90,11.5
104,Hasaki,JP,1612823953,35.7333,140.8333,32.0,43,20,9.22
105,Zeya,RU,1612824016,53.75,127.2667,-13.94,82,4,0.72
106,Zambezi,ZM,1612824016,-13.5432,23.1047,66.67,96,100,7.05
107,Saint-Pierre,RE,1612824017,-21.3393,55.4781,77.0,73,0,3.44
108,Sierra Vista,US,1612824017,31.5545,-110.3037,69.8,7,1,12.66
109,Manta,EC,1612824017,-0.95,-80.7333,78.8,78,75,5.75
110,Kiama,AU,1612824017,-34.6833,150.8667,69.01,94,90,5.99
111,New Norfolk,AU,1612823896,-42.7826,147.0587,57.99,55,48,1.01
112,Tokur,RU,1612824017,53.1333,132.9,-26.75,88,92,2.44
113,Dessie,ET,1612824017,11.1333,39.6333,48.33,94,99,4.83
114,Port Alfred,ZA,1612824017,-33.5906,26.891,68.0,84,65,3.0
115,Olafsvik,IS,1612824018,64.8945,-23.7142,34.88,83,86,12.46
116,Kamaishi,JP,1612823831,39.2667,141.8833,25.52,84,9,14.83
117,Pangnirtung,CA,1612824018,66.1451,-65.7125,19.4,49,1,8.05
118,Yulara,AU,1612824018,-25.2406,130.9889,86.0,23,90,17.27
119,Austin,US,1612823398,30.2672,-97.7431,75.2,53,75,6.91
120,Cap Malheureux,MU,1612824018,-19.9842,57.6142,75.0,84,2,1.99
121,Poum,NC,1612824018,-20.2333,164.0167,81.05,72,36,9.44
122,Cabra,ES,1612824018,37.4725,-4.4421,51.01,81,68,6.93
123,Eilat,IL,1612824019,29.5581,34.9482,68.0,49,0,4.5
124,San Pedro de Macorís,DO,1612824019,18.4616,-69.2972,82.4,69,20,10.36
125,Petropavl,KZ,1612824019,54.8753,69.1628,-7.85,90,100,13.96
126,Saskylakh,RU,1612824019,71.9167,114.0833,-30.12,84,16,2.84
127,Sosnovo-Ozerskoye,RU,1612824019,52.5249,111.5418,0.95,94,89,6.93
128,São Filipe,CV,1612824019,14.8961,-24.4956,70.2,77,100,11.14
129,Houma,US,1612824019,29.5958,-90.7195,64.99,82,90,9.22
130,Mar del Plata,AR,1612824020,-38.0023,-57.5575,64.99,59,40,14.97
131,Comodoro Rivadavia,AR,1612824016,-45.8667,-67.5,73.4,49,0,11.5
132,Nanga Eboko,CM,1612824020,4.6833,12.3667,71.78,45,98,2.46
133,Palana,RU,1612824020,59.1167,159.9667,13.86,91,39,9.24
134,Sarkand,KZ,1612824020,45.41,79.9186,31.75,96,100,7.29
135,Fare,PF,1612824020,-16.7,-151.0167,81.64,75,22,11.52
136,Sinnamary,GF,1612824020,5.3833,-52.95,77.74,79,44,14.45
137,Tsimmerbude,RU,1612824021,54.675,20.1347,17.6,86,90,24.61
138,Mahébourg,MU,1612823891,-20.4081,57.7,78.8,83,40,4.61
139,La Palma,US,1612824021,33.8464,-118.0467,64.99,63,20,8.05
140,Ürümqi,CN,1612824021,43.801,87.6005,15.8,92,65,4.47
141,Boende,CD,1612824021,-0.2167,20.8667,73.29,53,78,1.41
142,Hirara,JP,1612823840,24.8,125.2833,64.4,68,75,16.11
143,Esfarāyen,IR,1612824021,37.0765,57.5101,37.4,87,0,3.89
144,Puerto Limón,CR,1612824021,10.0,-83.0333,82.4,74,20,5.75
145,Kyshtovka,RU,1612824022,56.555,76.6271,-4.22,89,100,15.21
146,Yayva,RU,1612824022,59.3303,57.2641,-14.28,87,100,8.97
147,Clyde River,CA,1612823964,70.4692,-68.5914,8.6,85,20,26.46
148,Makambako,TZ,1612824022,-8.8453,34.823,60.46,100,100,3.4
149,Blagoyevo,RU,1612824022,63.3667,47.9167,-25.69,84,32,7.09
150,Ponta do Sol,PT,1612824022,32.6667,-17.1,57.99,72,24,1.99
151,Xining,CN,1612824022,36.6167,101.7667,23.9,65,46,2.06
152,Roald,NO,1612824022,62.5833,6.1333,21.2,63,0,9.22
153,Provideniya,RU,1612824023,64.3833,-173.3,6.8,78,90,20.13
154,Hambantota,LK,1612824023,6.1241,81.1185,76.37,75,96,19.06
155,Sundsvall,SE,1612824023,62.3913,17.3063,14.0,85,46,8.05
156,Tezu,IN,1612824024,27.9167,96.1667,58.62,35,0,3.85
157,Santana do Livramento,BR,1612824024,-30.8908,-55.5328,67.69,82,35,8.5
158,Port Lincoln,AU,1612824024,-34.7333,135.8667,69.06,69,23,15.12
159,Arraial do Cabo,BR,1612823913,-22.9661,-42.0278,73.4,94,75,5.35
160,Atuona,PF,1612824024,-9.8,-139.0333,79.7,76,83,19.8
161,Eyl,SO,1612824024,7.9803,49.8164,73.92,73,42,15.26
162,Satara,IN,1612824024,17.6833,73.9833,61.65,29,0,2.15
163,Olinda,BR,1612824025,-8.0089,-34.8553,80.6,65,40,8.05
164,Jinzhou,CN,1612824025,41.1078,121.1417,20.34,88,0,2.3
165,Trelew,AR,1612823841,-43.249,-65.3051,68.52,40,0,23.71
166,Pucallpa,PE,1612823846,-8.3791,-74.5539,89.6,62,75,3.44
167,Dārāb,IR,1612824025,28.7519,54.5444,53.28,41,0,6.76
168,Ukiah,US,1612824025,39.1502,-123.2078,61.0,41,20,3.44
169,East London,ZA,1612824025,-33.0153,27.9116,68.31,77,25,4.72
170,Karratha,AU,1612824026,-20.7377,116.8463,79.56,72,17,12.57
171,Quelimane,MZ,1612824026,-17.8786,36.8883,76.08,93,77,2.37
172,Lompoc,US,1612823852,34.6391,-120.4579,60.8,63,1,9.22
173,Thurso,GB,1612824026,58.5927,-3.5259,28.4,64,77,6.91
174,Mount Isa,AU,1612824026,-20.7333,139.5,77.0,94,100,4.61
175,Kumul,CN,1612824026,42.8,93.45,29.41,80,39,2.82
176,Kavaratti,IN,1612824027,10.5669,72.642,81.14,64,0,7.81
177,Broken Hill,AU,1612824027,-31.95,141.4333,69.8,30,0,9.22
178,Severo-Kuril'sk,RU,1612824027,50.6789,156.125,20.89,86,13,3.09
179,Lashio,MM,1612824027,22.9333,97.75,48.6,98,83,1.97
180,Dukat,RU,1612824027,62.55,155.55,0.97,93,100,10.38
181,Richards Bay,ZA,1612824027,-28.783,32.0377,74.89,91,85,5.28
182,Airai,TL,1612824028,-8.9266,125.4092,62.71,100,100,2.77
183,Bilibino,RU,1612824028,68.0546,166.4372,5.05,82,100,7.2
184,Avera,US,1612824028,33.194,-82.5271,60.8,63,90,6.91
185,Petropavlovka,RU,1612824028,50.6114,105.3196,2.57,88,10,2.28
186,Ilulissat,GL,1612824028,69.2167,-51.1,24.8,36,0,24.16
187,Tsaratanana,MG,1612824028,-16.7833,47.65,73.53,86,100,2.48
188,Sola,VU,1612824029,-13.8833,167.55,82.11,65,6,4.74
189,Dorsten,DE,1612824029,51.6667,6.9667,16.0,90,99,3.0
190,Alta Floresta,BR,1612824029,-9.8756,-56.0861,82.4,78,40,4.61
191,Celestún,MX,1612824029,20.8667,-90.4,78.28,78,0,13.09
192,La Asuncion,VE,1612824029,11.0333,-63.8628,76.42,85,1,15.68
193,The Valley,AI,1612824030,18.217,-63.0578,78.8,69,20,11.5
194,Saint Paul Harbor,US,1612824030,57.79,-152.4072,33.8,64,1,16.11
195,Suwannaphum,TH,1612824030,15.6035,103.8021,73.0,94,40,8.05
196,Kruisfontein,ZA,1612824030,-34.0033,24.7314,63.0,87,9,1.01
197,Øksfjord,NO,1612824030,70.2396,22.3479,21.2,85,40,2.3
198,Pucara,PE,1612824031,-15.9803,-71.4606,60.8,72,75,11.5
199,Lorengau,PG,1612824031,-2.0226,147.2712,84.92,71,25,6.69
200,San Francisco,US,1612823817,37.7749,-122.4194,59.0,67,75,8.05
201,Milledgeville,US,1612824031,33.0801,-83.2321,60.01,68,100,4.9
202,Kidal,ML,1612824031,18.4411,1.4078,69.84,21,89,7.49
203,Benicarló,ES,1612823768,40.4165,0.4271,51.01,58,22,15.01
204,Marataizes,BR,1612824031,-21.0433,-40.8244,71.22,83,100,3.87
205,Riyadh,SA,1612823826,24.6877,46.7219,53.6,76,0,4.61
206,Puerto Quijarro,BO,1612824032,-17.7833,-57.7667,80.49,39,0,2.06
207,Ahipara,NZ,1612824032,-35.1667,173.1667,73.13,65,100,11.48
208,Tiznit Province,MA,1612824033,29.5833,-9.5,52.48,83,46,3.2
209,Vardø,NO,1612824033,70.3705,31.1107,23.0,86,75,13.8
210,Funtua,NG,1612824033,11.5233,7.3081,65.77,23,0,8.25
211,Khatanga,RU,1612824033,71.9667,102.5,-18.65,83,6,12.3
212,Mayumba,GA,1612824033,-3.432,10.6554,79.93,86,100,7.18
213,Cap-Chat,CA,1612824034,49.1001,-66.6821,21.2,73,93,32.21
214,Faanui,PF,1612824034,-16.4833,-151.75,81.3,77,10,13.76
215,Constitución,CL,1612824020,-35.3333,-72.4167,63.07,78,13,12.64
216,Umm Kaddadah,SD,1612824034,13.6017,26.6876,63.34,29,46,13.53
217,George,ZA,1612824034,-33.963,22.4617,62.6,94,0,2.3
218,Sorong,ID,1612824034,-0.8833,131.25,80.76,80,100,1.43
219,West Wendover,US,1612824035,40.7391,-114.0733,53.6,12,1,5.75
220,Caucayá,CO,1612824035,-0.1934,-74.7819,82.51,74,94,0.87
221,Port Blair,IN,1612824035,11.6667,92.75,74.64,76,81,12.28
222,Hue,VN,1612824035,16.4667,107.6,69.8,100,75,6.91
223,Erzin,TR,1612824036,36.9559,36.2,53.6,100,75,5.75
224,Camacha,PT,1612824036,33.0833,-16.3333,59.0,82,20,8.05
225,Zhangye,CN,1612823949,38.9342,100.4517,31.8,64,3,4.03
226,Saint-Augustin,CA,1612824036,51.226,-58.6502,35.02,94,100,15.03
227,Laguna,US,1612824036,38.421,-121.4238,64.0,51,1,3.44
228,Omsukchan,RU,1612824036,62.5333,155.8,1.4,91,100,10.85
229,Māngrol,IN,1612824037,21.1167,70.1167,66.87,47,0,9.8
230,Pathein,MM,1612824037,16.7833,94.7333,61.48,80,8,5.5
231,Yar-Sale,RU,1612824037,66.8333,70.8333,-16.55,89,30,7.2
232,Ballina,AU,1612824037,-28.8667,153.5667,77.0,53,41,17.27
233,Najrān,SA,1612824037,17.4924,44.1277,53.6,94,75,4.61
234,Waconia,US,1612824041,44.8508,-93.7869,-0.4,65,1,4.61
235,Moscow,RU,1612823835,55.7522,37.6156,3.2,84,0,2.24
236,Adrar,MR,1612824041,20.5022,-10.0711,61.41,29,10,9.1
237,Vao,NC,1612824041,-22.6667,167.4833,77.47,80,11,6.89
238,Maceió,BR,1612824014,-9.6658,-35.7353,77.0,83,0,5.75
239,Kavieng,PG,1612824042,-2.5744,150.7967,84.51,73,89,7.9
240,Margate,GB,1612823895,51.3813,1.3862,30.0,79,100,1.99
241,Biltine,TD,1612824042,14.5333,20.9167,65.26,23,26,11.39
242,Seymchan,RU,1612824042,62.8833,152.4333,-10.97,88,100,9.71
243,Semnan,IR,1612824042,35.5729,53.3971,46.94,65,0,1.52
244,Tailai,CN,1612824043,46.3833,123.4,5.18,88,82,4.65
245,Mikhaylov,RU,1612824043,54.2292,39.0186,-4.56,92,58,2.46
246,Cockburn Town,TC,1612824043,21.4612,-71.1419,78.8,73,75,13.8
247,Lanigan,CA,1612824043,51.8501,-105.0344,-16.6,63,58,25.32
248,Salalah,OM,1612824044,17.0151,54.0924,71.6,73,0,2.3
249,Calabozo,VE,1612824044,8.9242,-67.4293,86.18,45,61,5.88
250,Nuuk,GL,1612824044,64.1835,-51.7216,30.2,43,0,5.75
251,Arlit,NE,1612824044,18.7369,7.3853,72.28,17,88,5.61
252,Pando,UY,1612824044,-34.7167,-55.95,68.0,77,75,18.41
253,Belaya Gora,RU,1612824044,68.5333,146.4167,-13.99,87,98,2.35
254,Srednekolymsk,RU,1612824044,67.45,153.6833,-6.11,91,97,4.81
255,Ossora,RU,1612824044,59.2353,163.0719,23.47,94,53,4.56
256,Bredasdorp,ZA,1612824045,-34.5322,20.0403,62.6,88,5,2.3
257,Port Hardy,CA,1612824045,50.6996,-127.4199,37.4,48,20,13.8
258,Esim,GH,1612824045,4.8699,-2.2405,80.04,86,19,8.9
259,Vanavara,RU,1612824045,60.34,102.2797,15.96,96,93,9.95
260,Beloha,MG,1612823828,-25.1667,45.05,73.76,88,100,8.57
261,Mujiayingzi,CN,1612824045,42.1167,118.7833,14.07,85,0,8.12
262,Noumea,NC,1612824034,-22.2763,166.4572,82.4,65,0,6.91
263,Tateyama,JP,1612824045,34.9833,139.8667,35.01,29,46,3.0
264,Charlestown,AU,1612824045,-32.95,151.6667,75.0,74,49,1.99
265,Tiksi,RU,1612824046,71.6872,128.8694,-27.31,86,100,4.34
266,Cortez,US,1612824046,37.3489,-108.5859,53.6,13,1,5.75
267,São João da Boa Vista,BR,1612824046,-21.9692,-46.7981,73.4,64,20,5.75
268,Pangkalanbuun,ID,1612823919,-2.6833,111.6167,74.07,99,75,2.15
269,Bunda,TZ,1612824046,-2.05,33.8667,66.42,79,58,5.99
270,Carnarvon,AU,1612824046,-24.8667,113.6333,73.4,100,0,12.66
271,Nueva Helvecia,UY,1612824046,-34.3,-57.2333,71.01,72,39,5.01
272,Esperance,AU,1612824047,-33.8667,121.9,59.0,94,75,6.91
273,Eganville,CA,1612824047,45.5334,-77.0994,19.4,63,90,6.91
274,San Quintín,MX,1612824047,30.4833,-115.95,62.02,66,0,6.49
275,Erdenet,MN,1612824047,49.0333,104.0833,7.48,83,0,3.42
276,Kohima,IN,1612823839,25.6667,94.1167,46.36,56,0,3.0
277,Geraldton,AU,1612824047,-28.7667,114.6,62.6,88,40,9.71
278,Baykit,RU,1612824047,61.67,96.37,17.51,93,100,13.82
279,Praia,CV,1612824047,14.9215,-23.5087,68.0,77,90,18.41
280,Saint George,US,1612823811,37.1041,-113.5841,64.99,14,1,3.31
281,Talcahuano,CL,1612824048,-36.7167,-73.1167,64.4,77,90,11.5
282,Batagay-Alyta,RU,1612824048,67.8006,130.4114,-24.03,75,0,2.82
283,Pacific Grove,US,1612823797,36.6177,-121.9166,55.99,82,75,8.05
284,Padang,ID,1612824048,-0.9492,100.3543,75.2,88,40,1.14
285,Havre-St-Pierre,CA,1612824048,50.2334,-63.5986,23.0,74,90,13.8
286,Flin Flon,CA,1612823903,54.7682,-101.865,-18.4,63,90,11.5
287,Meadow Lake,US,1612824048,34.8014,-106.5436,68.0,5,75,13.8
288,Rocha,UY,1612824048,-34.4833,-54.3333,63.93,90,91,3.02
289,Ekibastuz,KZ,1612824049,51.6667,75.3667,-7.1,85,0,20.18
290,Nikolskoye,RU,1612824049,59.7035,30.7861,6.01,84,0,2.24
291,Coyhaique,CL,1612824049,-45.5752,-72.0662,87.8,25,0,3.44
292,Coquimbo,CL,1612824049,-29.9533,-71.3436,66.2,68,0,12.66
293,Estelle,US,1612824049,29.8458,-90.1067,64.0,94,90,11.5
294,Cherskiy,RU,1612824049,68.75,161.3,7.9,79,100,6.26
295,Kirakira,SB,1612824050,-10.4544,161.9205,85.01,70,93,9.69
296,Saint-Joseph,RE,1612824050,-21.3667,55.6167,77.0,69,0,8.05
297,Oodweyne,SO,1612824050,9.4092,45.064,67.44,38,78,22.41
298,Nísia Floresta,BR,1612824050,-6.0911,-35.2086,82.4,74,20,12.66
299,Cabo San Lucas,MX,1612824050,22.8909,-109.9124,75.0,56,1,4.61
300,Bom Jesus,BR,1612824050,-9.0744,-44.3586,76.1,82,99,2.17
301,Tombouctou,ML,1612824050,20.0,-3.0,64.62,23,56,9.17
302,Grand Gaube,MU,1612824050,-20.0064,57.6608,75.0,84,3,1.99
303,San Patricio,US,1612824051,28.017,-97.5169,75.2,69,90,16.11
304,Grafton,US,1612824051,42.207,-71.6856,25.0,39,1,9.22
305,Wanxian,CN,1612824051,30.8039,108.3897,50.95,74,100,1.72
306,Terrace Bay,CA,1612824051,48.7834,-87.1,1.4,77,75,10.36
307,Edson,CA,1612824025,53.5835,-116.4356,-11.2,64,40,4.61
308,Susuman,RU,1612824051,62.7833,148.1667,-12.82,85,99,3.96
309,Shelburne,CA,1612824051,44.0787,-80.2041,12.99,72,83,6.31
310,Grindavik,IS,1612824052,63.8424,-22.4338,30.2,80,0,8.05
311,Berlevåg,NO,1612824052,70.8578,29.0864,24.8,74,40,21.85
312,Paita,PE,1612824052,-5.0892,-81.1144,84.2,54,0,17.27
313,Ust'-Donetskiy,RU,1612824052,47.6419,40.8718,21.29,97,100,17.67
314,Peniche,PT,1612824052,39.3558,-9.3811,55.99,89,100,17.0
315,Yōkaichiba,JP,1612824052,35.7,140.55,32.0,43,20,9.22
316,Morón,AR,1612823997,-34.6534,-58.6198,72.0,68,40,12.66
317,Bubaque,GW,1612824052,11.2833,-15.8333,77.27,62,0,13.13
318,Boca do Acre,BR,1612824053,-8.7522,-67.3978,76.55,94,100,0.67
319,Gulariyā,NP,1612823787,28.2333,81.3333,52.7,66,0,2.44
320,Guerrero Negro,MX,1612824053,27.9769,-114.0611,67.46,45,58,13.27
321,Tongliao,CN,1612824053,43.6125,122.2653,6.24,91,0,7.36
322,Le Port,RE,1612824023,-20.9373,55.2919,78.8,73,0,11.5
323,Kununurra,AU,1612824053,-15.7667,128.7333,77.0,100,90,4.61
324,Nanortalik,GL,1612824053,60.1432,-45.2371,29.28,90,85,14.14
325,Narasannapeta,IN,1612824053,18.4167,84.05,63.91,81,14,5.84
326,San Alberto,CO,1612824054,7.7611,-73.3922,86.7,52,84,3.8
327,Morondava,MG,1612824054,-20.2833,44.2833,79.2,85,100,14.63
328,Kharan,PK,1612824054,28.5833,65.4167,60.6,28,70,8.75
329,Sydney,AU,1612823806,-33.8679,151.2073,71.6,53,75,12.66
330,Korla,CN,1612824055,41.7597,86.1469,29.98,82,9,2.15
331,Japura,ID,1612824055,-0.3167,102.35,73.11,97,100,0.81
332,Midland,US,1612824055,31.9974,-102.0779,77.0,7,1,8.05
333,Aitape,PG,1612824055,-3.1374,142.3475,82.22,76,99,2.8
334,Arrondissement de Foix,FR,1612824056,42.8333,1.5833,42.01,64,94,5.1
335,Staryy Nadym,RU,1612824056,65.6118,72.6842,-13.29,90,93,5.75
336,Örnsköldsvik,SE,1612824056,63.2909,18.7153,10.4,92,0,8.05
337,Plettenberg Bay,ZA,1612824056,-34.0527,23.3716,65.46,78,0,3.22
338,Salinas,US,1612823766,36.6777,-121.6555,55.99,71,1,11.5
339,Cairns,AU,1612823841,-16.9167,145.7667,78.8,94,99,2.26
340,Westport,US,1612824007,41.1415,-73.3579,27.0,60,25,3.87
341,Nakonde,ZM,1612824056,-9.3421,32.745,61.5,100,100,3.24
342,Mandlā,IN,1612824011,22.6,80.3833,51.08,44,0,1.77
343,Pangody,RU,1612824057,65.85,74.4859,-9.42,91,95,6.02
344,Adré,TD,1612824057,13.4667,22.2,61.23,26,10,12.86
345,Naze,JP,1612824057,28.3667,129.4833,57.2,62,75,12.66
346,Owando,CG,1612824057,-0.4819,15.8999,76.66,69,47,3.11
347,Cabedelo,BR,1612824057,-6.9811,-34.8339,80.6,78,20,10.36
348,Ponta Delgada,PT,1612824057,37.7333,-25.6667,59.0,94,75,16.11
349,Nchelenge,ZM,1612824057,-9.3451,28.734,72.59,83,100,5.86
350,Sekoma,BW,1612824058,-24.4,23.8833,71.31,73,31,7.38
351,Kayerkan,RU,1612824058,69.3497,87.7602,0.82,90,99,5.75
352,Pringsewu,ID,1612824058,-5.3582,104.9744,72.81,94,100,0.78
353,Pagsañgahan,PH,1612824058,13.2158,122.5431,76.28,89,100,15.9
354,Kimamba,TZ,1612824058,-6.7833,37.1333,72.46,89,100,2.15
355,Havøysund,NO,1612824059,70.9963,24.6622,21.2,73,40,9.22
356,Carutapera,BR,1612824059,-1.195,-46.02,79.14,83,37,8.86
357,Isangel,VU,1612824059,-19.55,169.2667,82.4,78,20,6.62
358,Gaoua,BF,1612824059,10.2992,-3.2508,79.54,19,0,2.62
359,Tiarei,PF,1612824059,-17.5333,-149.3333,86.0,62,20,10.36
360,Rome,US,1612823864,43.2128,-75.4557,24.8,36,1,0.89
361,Garissa,KE,1612824060,-0.4536,39.6401,77.9,69,74,10.47
362,Montenegro,ME,1612824060,42.5,19.3,51.8,82,75,8.05
363,Oddur,SO,1612824060,4.1213,43.8894,70.48,71,63,16.64
364,Klaksvík,FO,1612824060,62.2266,-6.589,32.0,80,20,8.05
365,Ituporanga,BR,1612823858,-27.4144,-49.6025,75.99,90,10,7.0
366,Bonga,ET,1612824060,7.2833,36.2333,60.76,67,1,1.05
367,Talnakh,RU,1612824061,69.4865,88.3972,1.8,90,100,8.9
368,Dingle,PH,1612824061,10.9995,122.6711,75.0,93,96,9.01
369,Safi,MA,1612824061,32.2994,-9.2372,59.94,87,40,13.33
370,Nantucket,US,1612823762,41.2835,-70.0995,24.8,63,1,5.75
371,Flinders,AU,1612824061,-34.5833,150.8552,69.01,81,95,1.99
372,Srandakan,ID,1612824062,-7.9386,110.2506,75.49,88,98,4.61
373,San Luis,AR,1612824060,-33.295,-66.3356,62.2,77,100,7.9
374,Tuy Hoa,VN,1612824062,13.0833,109.3,70.16,89,57,4.72
375,Caluquembe,AO,1612824062,-13.7833,14.6833,59.41,72,95,8.3
376,Mount Gambier,AU,1612824062,-37.8333,140.7667,57.2,77,0,13.8
377,Manokwari,ID,1612824063,-0.8667,134.0833,79.18,84,100,1.9
378,Cidreira,BR,1612824032,-30.1811,-50.2056,73.2,75,0,12.44
379,Kautokeino,NO,1612824063,69.0125,23.0412,2.57,92,89,3.0
380,Necochea,AR,1612824063,-38.5473,-58.7368,64.0,69,9,12.39
381,São Gabriel da Cachoeira,BR,1612824063,-0.1303,-67.0892,77.2,92,99,1.81
382,Östersund,SE,1612824063,63.1792,14.6357,12.2,92,10,3.44
383,Kamenka,RU,1612824064,51.3223,42.7678,-0.99,84,22,4.79
384,San Jose,US,1612823860,37.3394,-121.895,63.0,55,75,9.22
385,Dawlatabad,AF,1612824064,36.4141,64.9053,51.04,68,48,3.53
386,São João da Barra,BR,1612824064,-21.6403,-41.0511,71.49,89,100,6.4
387,Half Moon Bay,US,1612824064,37.4636,-122.4286,57.99,67,75,3.44
388,Ust-Tsilma,RU,1612824064,65.441,52.1498,-10.52,89,100,8.95
389,High River,CA,1612824064,50.5834,-113.8687,-9.0,80,99,1.99
390,Smithers,CA,1612824064,54.7804,-127.1743,5.0,56,40,13.8
391,Yatou,CN,1612823833,37.15,122.3833,29.25,89,0,6.26
392,Seoul,KR,1612823766,37.5683,126.9778,19.4,73,0,2.3
393,Longyearbyen,SJ,1612824065,78.2186,15.6401,14.0,52,0,10.36
394,Luanda,AO,1612824065,-8.8368,13.2343,78.06,78,91,3.85
395,Palmer,US,1612824065,42.1584,-72.3287,24.8,39,20,6.91
396,Woodward,US,1612824065,36.4337,-99.3904,17.6,86,90,4.61
397,Valparaíso,CL,1612823817,-33.0393,-71.6273,66.2,63,40,13.8
398,Alofi,NU,1612824066,-19.0595,-169.9187,86.0,66,75,17.09
399,Santa Rosa,PH,1612824066,14.3122,121.1114,78.8,73,90,4.61
400,Radcliff,US,1612824066,37.8404,-85.9491,35.6,64,90,4.61
401,Nipawin,CA,1612824066,53.3668,-104.0009,-14.8,58,1,19.57
402,Portland,US,1612823778,45.5234,-122.6762,46.99,49,90,1.81
403,Dunedin,NZ,1612824038,-45.8742,170.5036,64.0,82,100,1.01
404,Nome,US,1612824067,64.5011,-165.4064,9.0,52,90,6.91
405,Benguela,AO,1612824067,-12.5763,13.4055,75.29,78,99,1.66
406,Muncar,ID,1612824067,-8.4333,114.3333,75.22,90,100,3.31
407,Mentougou,CN,1612824067,39.9392,116.0917,34.0,47,0,1.9
408,Bathsheba,BB,1612824068,13.2167,-59.5167,76.69,75,54,16.71
409,Gniezno,PL,1612823991,52.5348,17.5826,16.0,67,100,5.01
410,Hamilton,US,1612823928,39.1834,-84.5333,35.6,41,90,9.22
411,Husavik,IS,1612824068,66.0449,-17.3389,28.4,86,75,8.05
412,Sinegor'ye,RU,1612824068,62.0788,150.477,-11.61,86,100,3.62
413,Myitkyina,MM,1612824068,25.3833,97.4,57.4,85,96,0.67
414,Ayorou,NE,1612824069,14.7308,0.9174,79.0,15,47,9.26
415,Hammerfest,NO,1612823913,70.6634,23.6821,21.2,73,40,9.22
416,Kozhva,RU,1612824069,65.1073,57.0459,-14.12,89,100,5.57
417,Isiro,CD,1612824069,2.7739,27.616,65.23,37,93,0.67
418,Altoona,US,1612824069,40.5187,-78.3947,28.4,40,1,4.03
419,Yangjiang,CN,1612824070,21.85,111.9667,63.57,81,99,13.67
420,Doka,SD,1612824070,13.5167,35.7667,65.91,28,51,10.6
421,Sfântu Gheorghe,RO,1612823891,45.8667,25.7833,44.01,84,85,3.0
422,Huarmey,PE,1612824070,-10.0681,-78.1522,74.32,72,72,10.04
423,Fortuna,US,1612824070,40.5982,-124.1573,52.0,87,1,13.8
424,Termoli,IT,1612824070,41.9888,14.9895,53.01,61,57,15.99
425,Mindelo,CV,1612824071,16.8901,-24.9804,69.8,64,40,24.16
426,Samarai,PG,1612824071,-10.6167,150.6667,83.53,75,100,5.01
427,Sobolevo,RU,1612824071,54.4299,31.8996,7.32,92,100,12.03
428,Salisbury,GB,1612824071,51.0693,-1.7957,30.99,74,90,14.97
429,Illapel,CL,1612824071,-31.6308,-71.1653,70.29,46,0,6.02
430,Sangmélima,CM,1612824072,2.9333,11.9833,71.73,85,100,3.76
431,Ruteng,ID,1612824072,-8.6136,120.4721,64.92,100,100,1.12
432,Tyubuk,RU,1612824072,56.0552,60.9405,-12.89,83,100,15.32
433,Uyuni,BO,1612824026,-20.4597,-66.825,62.91,29,71,13.0
434,Hokitika,NZ,1612824072,-42.7167,170.9667,59.83,94,100,13.09
435,Lichuan,CN,1612824072,30.3,108.85,36.77,95,100,0.81
436,Asău,RO,1612824073,46.4333,26.4,33.8,100,90,3.44
437,Lavrentiya,RU,1612824073,65.5833,-171.0,-2.97,84,100,11.12
438,Salamanca,ES,1612824073,40.8333,-6.0,43.0,87,75,14.97
439,Ambilobe,MG,1612824073,-13.2,49.05,75.09,92,100,1.43
440,Umluj,SA,1612824074,25.0213,37.2685,72.88,38,0,10.87
441,San Ramon,US,1612824074,37.7799,-121.978,64.0,39,1,3.44
442,Tilichiki,RU,1612824074,60.4667,166.1,17.2,97,90,8.39
443,Mnogovershinnyy,RU,1612824074,53.9353,139.9242,-3.66,92,100,6.46
444,Fendou,CN,1612824075,46.65,124.8667,4.05,92,100,6.26
445,Tempio Pausania,IT,1612824075,40.8974,9.1035,55.4,88,40,6.91
446,Kitgum,UG,1612824075,3.2783,32.8867,70.75,44,90,4.47
447,Vilhena,BR,1612824075,-12.7406,-60.1458,82.4,69,40,5.75
448,Turukhansk,RU,1612824075,65.8167,87.9833,-2.83,89,53,10.54
449,İnegöl,TR,1612824075,40.0781,29.5133,62.6,48,75,19.57
450,Baculin,PH,1612824076,7.4525,126.5842,78.58,78,98,4.38
451,Jacareacanga,BR,1612824076,-6.2222,-57.7528,77.85,86,100,0.92
452,Khovd,MN,1612824076,48.0056,91.6419,12.65,89,61,1.01
453,Gao,ML,1612824076,16.6362,1.637,74.97,17,95,11.36
454,Casian,PH,1612824076,11.035,119.7136,80.38,80,85,22.1
455,Labuan,MY,1612824077,5.2767,115.2417,75.2,100,20,4.27
456,Pitimbu,BR,1612824077,-7.4706,-34.8086,80.6,78,20,10.36
457,Touros,BR,1612824077,-5.1989,-35.4608,82.4,74,0,11.5
458,Río Gallegos,AR,1612824077,-51.6226,-69.2181,77.0,22,0,12.66
459,Shumskiy,RU,1612824077,54.8318,99.1328,25.88,91,100,7.99
460,Eureka,US,1612824078,40.8021,-124.1637,50.0,79,100,1.99
461,Ishimbay,RU,1612824078,53.4545,56.0415,-24.45,84,74,5.17
462,Panguna,PG,1612824078,-6.3164,155.4848,78.62,80,89,2.66
463,Soloneshnoye,RU,1612824078,51.6544,84.3197,16.88,91,100,11.99
464,Xam Nua,LA,1612824078,20.4197,104.0439,52.45,94,100,4.18
465,Sørland,NO,1612824078,67.667,12.6934,35.04,83,100,10.42
466,Chilca,PE,1612824079,-12.5211,-76.7372,75.2,73,40,14.97
467,Nouadhibou,MR,1612824079,20.931,-17.0347,64.4,68,0,16.11
468,Mayaky,UA,1612824079,47.4408,29.5599,36.77,100,100,12.64
469,Boffa,GN,1612824079,10.1667,-14.0333,72.88,83,9,2.53
470,Saryozek,KZ,1612824079,44.3583,77.9753,30.72,98,100,4.36
471,Launceston,AU,1612824079,-41.45,147.1667,60.01,67,0,18.41
472,Qaryat Sulūq,LY,1612824079,31.6682,20.2521,55.71,81,0,1.41
473,Magadan,RU,1612824079,59.5667,150.8,8.4,93,100,12.17
474,Saquena,PE,1612824080,-4.6667,-73.5167,81.25,83,63,2.33
475,Bayan,CN,1612824080,46.0833,127.4,-0.58,92,100,7.72
476,Stockbridge,US,1612824080,33.5443,-84.2338,57.2,58,1,6.91
477,Merritt,CA,1612824080,50.1123,-120.7942,24.8,39,75,3.44
478,Strezhevoy,RU,1612824080,60.7333,77.5889,-7.6,77,20,4.47
479,Spassk-Ryazanskiy,RU,1612824080,54.4072,40.3806,-5.35,92,40,3.13
480,Ambon City,ID,1612824081,-3.6954,128.1814,78.01,88,40,8.05
481,Novyy Urgal,RU,1612824081,51.0736,132.5642,-20.69,87,85,2.04
482,Patawag,PH,1612824081,8.1064,122.6208,77.09,84,100,4.14
483,Lucapa,AO,1612823893,-8.4192,20.7447,65.86,94,100,2.77
484,Mandiana,GN,1612824081,10.6333,-8.6833,77.4,22,16,2.98
485,Al Bardīyah,LY,1612824081,31.7561,25.0865,60.39,80,0,10.4
486,Nemuro,JP,1612824062,43.3236,145.575,20.16,88,91,20.4
487,Laas,IT,1612824082,46.6166,10.7002,37.4,85,0,2.64
488,Ngunguru,NZ,1612824082,-35.6167,174.5,73.0,81,99,8.99
489,Blahodatne,UA,1612824082,50.6637,24.2492,18.0,85,100,11.01
490,San Mateo del Mar,MX,1612824082,16.2,-95.0,80.28,69,0,12.15
491,Tuatapere,NZ,1612824082,-46.1333,167.6833,54.0,92,100,9.98
492,Palembang,ID,1612824082,-2.9167,104.7458,74.53,96,99,4.0
493,Bambous Virieux,MU,1612824082,-20.3428,57.7575,78.8,83,40,4.61
494,Paramonga,PE,1612824083,-10.6667,-77.8333,72.81,78,94,8.14
495,Hay River,CA,1612824083,60.8156,-115.7999,-25.6,68,100,20.71
496,Chifeng,CN,1612823949,42.2683,118.9636,12.07,85,0,6.76
497,Teknāf,BD,1612824083,20.8624,92.3058,63.75,60,0,7.49
498,Nóvita,CO,1612824083,4.9551,-76.6053,78.03,89,100,2.71
499,Nīlēshwar,IN,1612824083,12.25,75.1,72.93,58,35,5.53
500,Buchanan,LR,1612824083,5.8808,-10.0467,78.8,94,40,7.4
501,Malaya Serdoba,RU,1612824084,52.4661,44.9512,-11.78,88,0,3.83
502,Evensk,RU,1612824084,61.95,159.2333,7.72,89,84,29.53
503,Morro Bay,US,1612823809,35.3658,-120.8499,61.0,85,100,1.01
504,Vaitape,PF,1612824084,-16.5167,-151.75,81.55,77,5,14.27
505,Badulla,LK,1612824084,6.9895,81.0557,64.33,92,100,6.24
506,Washington,US,1612823812,47.5001,-120.5015,35.01,59,100,1.01
507,Praia,CV,1612824084,14.9215,-23.5087,68.0,77,90,18.41
508,Mapiripán,CO,1612824084,2.8892,-72.1256,82.53,66,42,4.97
509,Ouésso,CG,1612824085,1.6136,16.0517,74.84,68,93,2.19
510,Swellendam,ZA,1612824085,-34.0226,20.4417,62.6,88,62,2.3
511,Caetité,BR,1612824085,-14.0694,-42.475,66.85,89,88,0.87
512,Boké,GN,1612824085,10.9409,-14.2967,70.25,80,18,0.89
513,Macao,MO,1612823868,22.2006,113.5461,66.2,72,20,13.8
514,Malakal,SS,1612824085,9.5334,31.6605,71.74,22,29,7.07
515,Harper,LR,1612824085,4.375,-7.7169,78.6,85,99,4.23
516,Toropets,RU,1612824085,56.4978,31.6353,5.65,94,98,5.97
517,North Bend,US,1612824086,43.4065,-124.2243,50.0,61,1,8.05
518,Ouadda,CF,1612824086,8.0777,22.4007,64.76,26,86,6.69
519,Chapais,CA,1612824086,49.7834,-74.8492,1.4,55,1,5.75
520,Aromashevo,RU,1612824086,56.8602,68.6375,-12.37,88,100,8.14
521,Tambopata,PE,1612824086,-12.7333,-69.1833,79.61,82,100,2.73
522,Shache,CN,1612824086,38.4167,77.2406,28.63,81,2,1.23
523,Andros Town,BS,1612824086,24.7,-77.7667,80.6,69,20,8.05
524,Martinópolis,BR,1612824086,-22.1458,-51.1708,70.07,74,14,4.94
525,Nabire,ID,1612824087,-3.3667,135.4833,76.5,92,100,3.15
526,Lagunas,PE,1612824087,-5.2269,-75.6753,82.99,77,95,1.5
527,La Ronge,CA,1612824087,55.1001,-105.2842,-20.2,63,100,16.11
528,Kerema,PG,1612824087,-7.9631,145.7785,83.73,67,99,2.33
529,Tura,IN,1612824010,25.5198,90.2201,56.73,49,0,2.73
530,Cuenca,EC,1612824001,-2.8833,-78.9833,66.2,72,90,11.5
531,Pangoa,PE,1612824087,-12.1167,-73.0,77.61,78,88,2.95
532,Lukovit,BG,1612824087,43.2,24.1667,52.0,93,90,6.91
533,Itarema,BR,1612824088,-2.9248,-39.9167,79.77,84,63,11.14
534,Mandalgovi,MN,1612824088,45.7625,106.2708,12.52,80,0,7.29
535,Bambanglipuro,ID,1612824088,-7.95,110.2833,76.01,88,96,5.01
536,Rio Branco,BR,1612824088,-9.9747,-67.81,77.0,94,40,5.75
537,Aginskoye,RU,1612824088,51.1,114.53,9.97,91,47,6.55
538,Goianésia,BR,1612824088,-15.3175,-49.1175,68.18,94,13,2.13
539,Hingoli,IN,1612824089,19.7167,77.15,58.5,32,0,1.23
540,Krasnovka,RU,1612824089,48.8177,40.0923,19.15,92,100,18.05
541,Port Hedland,AU,1612824089,-20.3167,118.5667,75.2,83,0,9.22
542,Cochrane,CA,1612823801,51.1834,-114.4687,-9.0,59,1,6.91
543,Great Falls,US,1612823994,47.5002,-111.3008,-7.01,70,75,9.22
544,Santa Fe,AR,1612824089,-31.6333,-60.7,80.01,73,97,5.01
545,Paisley,GB,1612824089,55.8317,-4.4325,30.2,93,75,14.97
546,Viedma,AR,1612824089,-40.8135,-62.9967,68.0,51,0,1.01
547,Pospelikha,RU,1612824090,51.95,81.7667,6.57,92,83,12.73
548,Torbay,CA,1612824090,47.6666,-52.7314,32.0,100,90,26.46
549,Amalāpuram,IN,1612824090,16.5833,82.0167,62.19,91,21,3.29
550,Velikodvorskiy,RU,1612824090,55.25,40.6678,-8.14,91,0,1.43
551,Bonito,BR,1612824090,-21.1211,-56.4819,73.51,64,1,3.13
552,Redcliffe,AU,1612824090,-27.2307,153.0973,78.01,57,20,12.66
553,Marsh Harbour,BS,1612824090,26.5412,-77.0636,75.7,84,15,10.18
554,Puerto del Rosario,ES,1612824091,28.5004,-13.8627,66.2,59,75,5.75
555,Kilindoni,TZ,1612824091,-7.9139,39.6668,82.06,82,100,16.71
556,Tafo,GH,1612824091,6.7345,-1.6127,76.5,84,13,6.69
557,Vanimo,PG,1612824091,-2.6741,141.3028,81.19,79,100,1.3
558,Banjar,ID,1612824091,-8.19,114.9675,77.0,94,20,4.61
559,Hualmay,PE,1612824091,-11.0964,-77.6139,73.53,75,100,9.62
560,Vila Franca do Campo,PT,1612824091,37.7167,-25.4333,59.0,94,75,16.11
561,Starobaltachevo,RU,1612824091,56.0013,55.9213,-16.89,87,100,11.27
562,Morant Bay,JM,1612824092,17.8815,-76.4093,82.4,74,20,26.46
